,관광지명,도로명주소,중분류 카테고리,소분류 카테고리,gu,주소,위도,경도,cnt
0,금곡도서관,부산 북구 효열로203번길 34-0,문화시설,문화생활시설기타,Buk-gu,부산 북구 효열로203번길 34-0,35.26301,129.01751,65
1,수덕사,부산 북구 상학산복길 107-0,역사관광지,절,Buk-gu,부산 북구 상학산복길 107-0,35.2161314,129.0390534,65
2,구포대리마을커뮤니티센터,부산 북구 백양대로1172번길 18-0,문화시설,문화생활시설기타,Buk-gu,부산 북구 백양대로1172번길 18-0,35.2064015,129.0055941,65
3,만덕사,부산 북구 구만덕로 63-13,역사관광지,절,Buk-gu,부산 북구 구만덕로 63-13,35.21487,129.04172,65
4,만덕사,부산 북구 덕천로386번길 47-18,역사관광지,절,Buk-gu,부산 북구 덕천로386번길 47-18,35.2081877,129.0448091,65
5,안심사,부산 북구 공해4길 98-100,역사관광지,절,Buk-gu,부산 북구,35.1969,128.9901999,65
6,장금선원,부산 북구 백양대로1074번길 5-15,역사관광지,절,Buk-gu,부산 북구 백양대로1074번길 5-15,35.2005081,128.9983132,65
7,옥천사,부산 북구 만덕1로104번가길 29-13,역사관광지,절,Buk-gu,부산 북구 만덕1로104번가길 29-13,35.2154544,129.0271738,65
8,수월선원,부산 북구 금곡대로92번길 36-0,역사관광지,절,Buk-gu,부산 북구 금곡대로92번길 36-0,35.2185429,129.006825,65
9,미륵사,부산 북구 백양대로1016번길 71-0,역사관광지,절,Buk-gu,부산 북구 백양대로1016번길 71-0,35.1970454,128.997499,65
10,맨발동무도서관,부산 북구 양달로 64-0,문화시설,문화생활시설기타,Buk-gu,부산 북구 양달로 64,35.2430232,129.0178376,65
11,만덕사지,부산 북구,역사관광지,문화유적지,Buk-gu,부산 북구,35.1969,128.9901999,65
12,불암사,부산 북구 효열로162번길 180-22,역사관광지,절,Buk-gu,부산 북구 효열로162번길 180-22,35.2619265,129.0206561,65
13,금수선사,부산 북구 시랑로185번길 20-0,역사관광지,절,Buk-gu,부산 북구 시랑로185번길 20-0,35.1959609,129.0156785,65
14,문화예술플랫폼,부산 북구 구포만세길 113-0,문화시설,문화생활시설기타,Buk-gu,부산 북구 구포만세길 113-0,35.2068781,128.9984907,65
15,솔밭작은도서관,부산 북구 금곡대로324번길 29-0,문화시설,문화생활시설기타,Buk-gu,부산 북구 금곡대로324번길 29-0,35.2371832,129.0152816,65
16,창조문화활력센터,부산 북구 백양대로 1167-0,문화시설,문화생활시설기타,Buk-gu,부산 북구 백양대로 1167,35.2035711,128.999641,65
17,금수사,부산 북구 시랑로185번길 20-0,역사관광지,절,Buk-gu,부산 북구 시랑로185번길 20-0,35.1959609,129.0156785,65
18,진홍사,부산 북구 효열로162번길 180-14,역사관광지,절,Buk-gu,부산 북구 효열로162번길 180-14,35.2619265,129.0206561,65
19,상학작은도서관,부산 북구 상학산복길 215-0,문화시설,문화생활시설기타,Buk-gu,부산 북구 상학산복길 215,35.2171458,129.0402148,65
20,구룡사,부산 북구 금곡대로 66-19,역사관광지,절,Buk-gu,부산 북구 금곡대로 66-19,35.2697243,129.0189206,65
21,부산북구문화예술회관,부산 북구 금곡대로46번길 50-0,공연/행사,공연장,Buk-gu,부산 북구 금곡대로46번길 50-0,35.2143446,129.0056348,65
22,석불사,부산 북구 만덕고개길 143-79,역사관광지,절,Buk-gu,부산 북구 만덕고개길 143-79,35.2136508,129.0491704,65
23,메가박스덕천,부산 북구 만덕대로 23-0,공연/행사,극장,Buk-gu,부산 북구 만덕대로 23-0,35.2130268,129.0365374,65
24,만덕도서관,부산 북구 은행나무로 26-0,문화시설,문화생활시설기타,Buk-gu,부산 북구 은행나무로 26-0,35.2078315,129.0374984,65
25,부산어촌민속관,부산 북구 학사로 128-0,문화시설,박물관/기념관,Buk-gu,부산 북구 학사로 128,35.2248365,129.0066949,65
26,CGV화명,부산 북구 화명대로 16-0,공연/행사,극장,Buk-gu,부산 북구 화명대로 16-0,35.2342187,129.0162219,65
27,만덕도서관오픈예정(2021년11월말),부산 북구 은행나무로 26-0,문화시설,문화생활시설기타,Buk-gu,부산 북구 은행나무로 26-0,35.2078315,129.0374984,65
28,부산광역시립구포도서관,부산 북구 백양대로1016번다길 43-0,문화시설,문화생활시설기타,Buk-gu,부산 북구 백양대로1016번다길 43-0,35.1947728,128.9955519,65
29,화명도서관,부산 북구 화명대로12번길 59-0,문화시설,문화생활시설기타,Buk-gu,부산 북구 화명대로12번길 59-0,35.2330938,129.0092259,65
30,화명선원,부산 북구 금곡대로 358-0,역사관광지,절,Buk-gu,부산 북구 금곡대로 358,35.2697243,129.0189206,65
31,관음사,부산 북구 팽나무로56번길 13-0,역사관광지,절,Buk-gu,부산 북구 팽나무로56번길 13-0,35.2051258,129.0106218,65
32,무사이,부산 북구 산성로12번길 21-0,공연/행사,극장,Buk-gu,부산 북구 산성로12번길 21-0,35.2371832,129.0152816,65
33,화명수목원숲속작은도서관,부산 북구 산성로 299-0,문화시설,문화생활시설기타,Buk-gu,부산 북구 산성로 299,35.24162,129.02244,65
34,관음사,부산 북구 만덕대로178번길 7-0,역사관광지,절,Buk-gu,부산 북구 만덕대로178번길 7-0,35.2121831,129.0242193,65
35,낙양사,부산 북구 백양대로1050번길 31-1,역사관광지,절,Buk-gu,부산 북구 백양대로1050번길 31-1,35.1986639,128.9972406,65
36,스트릿624,부산 북구 백양대로 1167-0,문화시설,문화생활시설기타,Buk-gu,부산 북구 백양대로 1167,35.2035711,128.999641,65
37,아세아극장,부산 북구 낙동대로 1704-0,공연/행사,극장,Buk-gu,부산 북구 낙동대로 1704,35.2080822,128.9983126,65
38,법성사,부산 북구 구만덕로80번길 37-0,역사관광지,절,Buk-gu,부산 북구,35.1969,128.9901999,65
39,정원암,부산 북구 의성로 58-0,역사관광지,절,Buk-gu,부산 북구 의성로 58-0,35.220315,129.0084682,65
40,대성사,부산 북구 구남로13번길 31-0,역사관광지,절,Buk-gu,부산 북구 구남로13번길 31,35.1982989,128.9931102,65
41,불심사,부산 북구 시랑로 20-1,역사관광지,절,Buk-gu,부산 북구 시랑로 20-1,35.203014,129.0042872,65
42,개슈,부산 북구 효열로 193-0,문화시설,문화생활시설기타,Buk-gu,부산 북구 효열로 193,35.2600186,129.0162134,65
43,더그랜드코리아,부산 북구 만덕3로 32-1,휴양관광지,수족관,Buk-gu,부산 북구 만덕3로 32-1,35.21179,129.02711,65
44,희망마을시랑골문화센터,부산 북구 시랑로185번길 47-0,문화시설,문화생활시설기타,Buk-gu,부산 북구 시랑로185번길 47-0,35.1959609,129.0156785,65
45,성불사,부산 북구 모분재로 34-0,역사관광지,절,Buk-gu,부산 북구 모분재로 34-0,35.204611,129.0063894,65
46,대천친환경문화센터,부산 북구 양달로 64-0,문화시설,문화생활시설기타,Buk-gu,부산 북구 양달로 64,35.2430232,129.0178376,65
47,성원사,부산 북구 덕천로 132-12,역사관광지,절,Buk-gu,부산 북구 덕천로 132-12,35.2090457,129.0414034,65
48,마하사,부산 북구 구남로14번길 53-0,역사관광지,절,Buk-gu,부산 북구 구남로14번길 53,35.2000456,128.9960589,65
49,화방사,부산 북구 효열로 75-16,역사관광지,절,Buk-gu,부산 북구 효열로 75-16,35.2600186,129.0162134,65
50,진여원,부산 북구 낙동대로 1678-0,역사관광지,절,Buk-gu,부산 북구 낙동대로 1678,35.2080822,128.9983126,65
51,법정사,부산 북구 덕천로386번길 47-17,역사관광지,절,Buk-gu,부산 북구 덕천로386번길 47-17,35.2081877,129.0448091,65
52,북부산새마을금고다목적홀,부산 북구 만덕대로90번길 8-0,문화시설,문화생활시설기타,Buk-gu,부산 북구 만덕대로90번길 8-0,35.2102516,129.0155133,65
53,여래원,부산 북구 산성로65번길 6-8,역사관광지,절,Buk-gu,부산 북구 산성로65번길 6-8,35.2420131,129.0197212,65
54,불타사,부산 북구 낙동대로1766번길 43-0,역사관광지,절,Buk-gu,부산 북구 낙동대로1766번길 43-0,35.2077802,129.0021122,65
55,해인사부산포교당,부산 북구 백양대로 1014-0,역사관광지,절,Buk-gu,부산 북구 백양대로 1014,35.2035711,128.999641,65
56,비로사,부산 북구 구만덕로59번가길 21-0,역사관광지,절,Buk-gu,부산 북구,35.1969,128.9901999,65
57,다보사여래선원,부산 북구 시랑로83번길 40-8,역사관광지,절,Buk-gu,부산 북구 시랑로83번길 40-8,35.1970938,129.0090948,65
58,금용사,부산 북구 모분재로15번길 105-0,역사관광지,절,Buk-gu,부산 북구 모분재로15번길 105-0,35.2069872,129.0099353,65
59,보광사,부산 북구 시랑로21번길 183-0,역사관광지,절,Buk-gu,부산 북구 시랑로21번길 183,35.2041208,129.0078731,65
60,금등사,부산 북구 만덕대로 325-13,역사관광지,절,Buk-gu,부산 북구 만덕대로 325-13,35.2130268,129.0365374,65
61,행복선원부산포교원,부산 북구 만덕대로102번가길 17-0,역사관광지,절,Buk-gu,부산 북구 만덕대로102번가길 17-0,35.212492,129.0175798,65
62,쇼미더VR부산덕천점,부산 북구 덕천1길 37-0,휴양관광지,놀이시설,Buk-gu,부산 북구 덕천1길 37-0,35.2102311,129.0084038,65
63,덕화사,부산 북구 금곡대로 32-8,역사관광지,절,Buk-gu,부산 북구 금곡대로 32-8,35.2697243,129.0189206,65
64,장금선원,부산 북구 낙동북로 684-0,역사관광지,절,Buk-gu,부산 북구 낙동북로 684,35.1981484,129.0006638,65
65,부산진문화원,부산 부산진구 시민공원로19번길 28-0,문화시설,문화원,Busanjin-gu,부산 부산진구 시민공원로19번길 28-0,35.1641177,129.0517098,127
66,불광사,부산 부산진구 초읍천로77번가길 72-0,역사관광지,절,Busanjin-gu,부산 부산진구 초읍천로77번가길 72-0,35.1794872,129.0452558,127
67,서면젊음의거리,부산 부산진구,휴양관광지,놀거리기타,Busanjin-gu,부산 부산진구,35.1632335,129.0529462,127
68,원각사,부산 부산진구 양정로 63-0,역사관광지,절,Busanjin-gu,부산 부산진구 양정로 63-0,35.1705632,129.0770189,127
69,정정심인당,부산 부산진구 서전로 29-0,역사관광지,절,Busanjin-gu,부산 부산진구 서전로 29-0,35.1577298,129.0598728,127
70,보현정사,부산 부산진구 진사로 84-0,역사관광지,절,Busanjin-gu,부산 부산진구 진사로 84,35.1442974,129.0153077,127
71,천안사,부산 부산진구 백양산로54번길 72-0,역사관광지,절,Busanjin-gu,부산 부산진구 백양산로54번길 72-0,35.1752833,129.0323297,127
72,보각사,부산 부산진구 안창로10번길 36-10,역사관광지,절,Busanjin-gu,부산 부산진구 안창로10번길 36-10,35.1461854,129.0453771,127
73,광명사,부산 부산진구 안창로14번길 46-0,역사관광지,절,Busanjin-gu,부산 부산진구 안창로14번길 46-0,35.1459922,129.0453135,127
74,소민아트센터,부산 부산진구 서면문화로 14-0,문화시설,화랑/전시관,Busanjin-gu,부산 부산진구 서면문화로 14-0,35.1597884,129.0560354,127
75,신흥사,부산 부산진구 가야공원로 77-20,역사관광지,절,Busanjin-gu,부산 부산진구 가야공원로 77-20,35.1492037,129.030028,127
76,KT&G상상마당부산,부산 부산진구 서면로 39-0,문화시설,문화생활시설기타,Busanjin-gu,부산 부산진구 서면로 39-0,35.1534174,129.0571664,127
77,수도사,부산 부산진구 개금본동로66번길 34-7,역사관광지,절,Busanjin-gu,부산 부산진구 개금본동로66번길 34-7,35.1577697,129.0200343,127
78,국립부산국악원,부산 부산진구 국악로 2-0,공연/행사,공연장,Busanjin-gu,부산 부산진구 국악로 2-0,35.1718924,129.0532978,127
79,연화사,부산 부산진구 성지로14번길 77-0,역사관광지,절,Busanjin-gu,부산 부산진구 성지로14번길 77,35.1721329,129.0567932,127
80,부산어린이대공원,부산 부산진구 새싹로 295-0,휴양관광지,테마파크,Busanjin-gu,부산 부산진구 새싹로 295,35.1608974,129.056557,127
81,백일사,부산 부산진구 망양로945번길 26-0,역사관광지,절,Busanjin-gu,부산 부산진구 망양로945번길 26-0,35.1427428,129.051402,127
82,멜팅포인트,부산 부산진구 서전로58번길 38-1,문화시설,문화생활시설기타,Busanjin-gu,부산 부산진구 서전로58번길 38-1,35.1545226,129.0661514,127
83,안국사,부산 부산진구 안창로72번길 64-31,역사관광지,절,Busanjin-gu,부산 부산진구 안창로72번길 64-31,35.1434108,129.0386883,127
84,천룡사,부산 부산진구 성지곡로33번길 45-10,역사관광지,절,Busanjin-gu,부산 부산진구 성지곡로33번길 45-10,35.1859092,129.0457393,127
85,부산커피박물관,부산 부산진구 동천로 70-0,문화시설,박물관/기념관,Busanjin-gu,부산 부산진구 동천로 70-0,35.1547911,129.0617297,127
86,관음사,부산 부산진구 엄광로384번나길 72-0,역사관광지,절,Busanjin-gu,부산 부산진구,35.1632335,129.0529462,127
87,정효사,부산 부산진구 엄광로 460-5,역사관광지,절,Busanjin-gu,부산 부산진구 엄광로 460-5,35.1481031,129.0224133,127
88,부산포민속박물관,부산 부산진구 중앙대로702번길 21-0,문화시설,박물관/기념관,Busanjin-gu,부산 부산진구 중앙대로702번길 21-0,35.1553635,129.061722,127
89,극락사,부산 부산진구 초연로 23-6,역사관광지,절,Busanjin-gu,부산 부산진구 초연로 23-6,35.173782,129.0475522,127
90,전리단갤러리,부산 부산진구 서전로37번길 20-0,문화시설,화랑/전시관,Busanjin-gu,부산 부산진구 서전로37번길 20-0,35.1590283,129.0638249,127
91,보광원,부산 부산진구 진남로304번길 18-0,역사관광지,절,Busanjin-gu,부산 부산진구 진남로304번길 18-0,35.1528172,129.0734138,127
92,청년창조발전소디자인스프링,부산 부산진구 대학로36번길 10-0,문화시설,문화생활시설기타,Busanjin-gu,부산 부산진구 대학로36번길 10-0,35.1521984,129.0332442,127
93,삼광사,부산 부산진구 초읍천로43번길 77-0,역사관광지,절,Busanjin-gu,부산 부산진구 초읍천로43번길 77,35.1759816,129.0454142,127
94,부산통일관,부산 부산진구 초읍천로 113-10,문화시설,화랑/전시관,Busanjin-gu,부산 부산진구 초읍천로 113-10,35.1822638,129.0464649,127
95,성도암,부산 부산진구 초읍천로 115-0,역사관광지,절,Busanjin-gu,부산 부산진구 초읍천로 115,35.1822638,129.0464649,127
96,가야사,부산 부산진구,역사관광지,절,Busanjin-gu,부산 부산진구,35.1632335,129.0529462,127
97,여여선원,부산 부산진구 동평로420번길 18-0,역사관광지,절,Busanjin-gu,부산 부산진구 동평로420번길 18-0,35.1724545,129.0699698,127
98,부산광역시립시민도서관,부산 부산진구 월드컵대로 462-0,문화시설,문화생활시설기타,Busanjin-gu,부산 부산진구 월드컵대로 462,35.1874094,129.0562345,127
99,삼보게임랜드,부산 부산진구 서전로10번길 61-0,휴양관광지,놀이시설,Busanjin-gu,부산 부산진구 서전로10번길 61-0,35.1562538,129.0602139,127
100,부산광역시립부전도서관,부산 부산진구 동천로 79-0,문화시설,문화생활시설기타,Busanjin-gu,부산 부산진구 동천로 79-0,35.1547911,129.0617297,127
101,CGV서면삼정타워,부산 부산진구 중앙대로 672-0,공연/행사,극장,Busanjin-gu,부산 부산진구 중앙대로 672,35.152987499999995,129.0596350607664,127
102,성지곡수원지,부산 부산진구 새싹로 295-0,휴양관광지,유원지,Busanjin-gu,부산 부산진구 새싹로 295,35.1608974,129.056557,127
103,놀이마루,부산 부산진구 전포대로209번길 26-0,문화시설,문화생활시설기타,Busanjin-gu,부산 부산진구 전포대로209번길 26-0,35.1552179,129.0642508,127
104,호천문화플랫폼,부산 부산진구 엄광로 491-0,문화시설,문화생활시설기타,Busanjin-gu,부산 부산진구 엄광로 491,35.1481031,129.0224133,127
105,서면1번가,부산 부산진구 신천대로62번길 0-0,휴양관광지,놀거리기타,Busanjin-gu,부산 부산진구 신천대로62번길 0-0,35.1521823,129.0584106,127
106,한국신발관,부산 부산진구 백양대로 227-0,문화시설,박물관/기념관,Busanjin-gu,부산 부산진구 백양대로 227,35.1624242,129.0464964,127
107,런닝맨부산점,부산 부산진구 중앙대로 672-0,휴양관광지,테마파크,Busanjin-gu,부산 부산진구 중앙대로 672,35.152987499999995,129.0596350607664,127
108,정묘사,부산 부산진구,역사관광지,고택/생가/민속마을,Busanjin-gu,부산 부산진구,35.1632335,129.0529462,127
109,LG디스커버리랩부산,부산 부산진구 새싹로 165-0,문화시설,과학관,Busanjin-gu,부산 부산진구 새싹로 165-0,35.1608974,129.056557,127
110,롯데시네마서면,부산 부산진구 동천로 92-0,공연/행사,극장,Busanjin-gu,부산 부산진구 동천로 92-0,35.1547911,129.0617297,127
111,롯데시네마부산본점,부산 부산진구 가야대로 772-0,공연/행사,극장,Busanjin-gu,부산 부산진구 가야대로 772,35.156721950000005,129.05606329100732,127
112,놀이똥산부산점,부산 부산진구 중앙대로 672-0,휴양관광지,테마파크,Busanjin-gu,부산 부산진구 중앙대로 672,35.152987499999995,129.0596350607664,127
113,부산영어도서관,부산 부산진구 가야대로 734-0,문화시설,문화생활시설기타,Busanjin-gu,부산 부산진구 가야대로 734,35.1566914,129.05235793696414,127
114,감로사,부산 부산진구,역사관광지,절,Busanjin-gu,부산 부산진구,35.1632335,129.0529462,127
115,송상현동상,부산 부산진구,역사관광지,기념비,Busanjin-gu,부산 부산진구,35.1632335,129.0529462,127
116,호천생활문화센터,부산 부산진구 엄광로495번가길 36-0,문화시설,문화생활시설기타,Busanjin-gu,부산 부산진구 엄광로495번가길 36-0,35.1430533,129.0513726,127
117,보각사,부산 부산진구 안창로10번길 36-11,역사관광지,절,Busanjin-gu,부산 부산진구 안창로10번길 36-11,35.1461854,129.0453771,127
118,서면미술관,부산 부산진구 동천로 58-0,문화시설,미술관,Busanjin-gu,부산 부산진구 동천로 58-0,35.1547911,129.0617297,127
119,부산진구어린이청소년도서관,부산 부산진구 백양순환로110번길 25-0,문화시설,문화생활시설기타,Busanjin-gu,부산 부산진구 백양순환로110번길 25-0,35.1677492,129.0396677,127
120,부산국제아트센터건축중(2023년개관예정),부산 부산진구 새싹로92번길 60-0,공연/행사,공연장,Busanjin-gu,부산 부산진구 새싹로92번길 60-0,35.16754,129.05289,127
121,통도사부산포교원불지사,부산 부산진구 부전로140번길 25-0,역사관광지,절,Busanjin-gu,부산 부산진구 부전로140번길 25-0,35.1611842,129.0568954,127
122,홍제사,부산 부산진구 진남로304번길 34-0,역사관광지,절,Busanjin-gu,부산 부산진구 진남로304번길 34-0,35.1528172,129.0734138,127
123,대원사,부산 부산진구 가야공원로 110-0,역사관광지,절,Busanjin-gu,부산 부산진구 가야공원로 110,35.1492037,129.030028,127
124,CGV서면상상마당,부산 부산진구 서면로 39-0,공연/행사,극장,Busanjin-gu,부산 부산진구 서면로 39-0,35.1534174,129.0571664,127
125,디렉팅아쿠아유토,부산 부산진구 성지로22번길 16-0,휴양관광지,수족관,Busanjin-gu,부산 부산진구 성지로22번길 16-0,35.1728742,129.0561443,127
126,LG연암기념관,부산 부산진구 새싹로 165-0,문화시설,박물관/기념관,Busanjin-gu,부산 부산진구 새싹로 165-0,35.1608974,129.056557,127
127,기봉사,부산 부산진구 진남로328번길 70-0,역사관광지,절,Busanjin-gu,부산 부산진구 진남로328번길 70-0,35.1551059,129.0736818,127
128,금성사,부산 부산진구 엄광로62번길 70-2,역사관광지,절,Busanjin-gu,부산 부산진구 엄광로62번길 70-2,35.1474618,129.0226864,127
129,민들레가있는작은도서관,부산 부산진구 서전로68번길 29-5,문화시설,문화생활시설기타,Busanjin-gu,부산 부산진구 서전로68번길 29-5,35.15614,129.0672156,127
130,천은사,부산 부산진구 엄광로495번길 47-1,역사관광지,절,Busanjin-gu,부산 부산진구 엄광로495번길 47-1,35.1438933,129.051614,127
131,약광사,부산 부산진구 성지곡로 57-0,역사관광지,절,Busanjin-gu,부산 부산진구 성지곡로 57-0,35.1876141,129.0477136,127
132,용해사,부산 부산진구,역사관광지,절,Busanjin-gu,부산 부산진구,35.1632335,129.0529462,127
133,용암사,부산 부산진구 엄광로384번길 15-0,역사관광지,절,Busanjin-gu,부산 부산진구 엄광로384번길 15-0,35.1517843,129.0462737,127
134,금련암,부산 부산진구,역사관광지,절,Busanjin-gu,부산 부산진구,35.1632335,129.0529462,127
135,훈민정음 작은도서관,부산 부산진구 용사촌로 5-0,문화시설,문화생활시설기타,Busanjin-gu,부산 부산진구 용사촌로 5-0,35.1716962,129.0343148,127
136,부산발전연구원 정보자료센터,부산 부산진구 중앙대로 955-0,문화시설,문화생활시설기타,Busanjin-gu,부산 부산진구 중앙대로 955,35.1564287,129.0591521,127
137,대한불교조계종포교사단부산지역단,부산 부산진구 서면문화로 27-0,역사관광지,절,Busanjin-gu,부산 부산진구 서면문화로 27-0,35.1597884,129.0560354,127
138,보은정사,부산 부산진구 서전로68번길 81-0,역사관광지,절,Busanjin-gu,부산 부산진구 서전로68번길 81,35.15614,129.0672156,127
139,금성사,부산 부산진구 진남로328번길 175-0,역사관광지,절,Busanjin-gu,부산 부산진구 진남로328번길 175-0,35.1551059,129.0736818,127
140,롯데백화점 문화센터부산본점,부산 부산진구 가야대로 772-0,문화시설,문화생활시설기타,Busanjin-gu,부산 부산진구 가야대로 772,35.156721950000005,129.05606329100732,127
141,백양산홍법사,부산 부산진구 성지로94번가길 37-0,역사관광지,절,Busanjin-gu,부산 부산진구 성지로94번가길 37-0,35.1800852,129.0525443,127
142,김종식미술관제2전시장,부산 부산진구 성지로 55-0,문화시설,미술관,Busanjin-gu,부산 부산진구 성지로 55-0,35.1726948,129.0550039,127
143,홍주갤러리,부산 부산진구 망양로945번길 44-0,문화시설,화랑/전시관,Busanjin-gu,부산 부산진구 망양로945번길 44-0,35.1427428,129.051402,127
144,용남사,부산 부산진구 가야대로572번가길 4-0,역사관광지,절,Busanjin-gu,부산 부산진구 가야대로572번가길 4-0,35.1533391,129.0335494,127
145,짱오락실부산삼정타워점,부산 부산진구 중앙대로 672-0,휴양관광지,놀이시설,Busanjin-gu,부산 부산진구 중앙대로 672,35.152987499999995,129.0596350607664,127
146,CGV대한,부산 부산진구 중앙대로692번길 16-0,공연/행사,극장,Busanjin-gu,부산 부산진구 중앙대로692번길 16-0,35.1544879,129.0608304,127
147,석불암,부산 부산진구 월드컵대로449번길 26-2,역사관광지,절,Busanjin-gu,부산 부산진구 월드컵대로449번길 26-2,35.1822564,129.0513195,127
148,선암사문화교육관,부산 부산진구 백양산로 138-0,문화시설,화랑/전시관,Busanjin-gu,부산 부산진구 백양산로 138,35.1758,129.03085,127
149,안양사,부산 부산진구 신암로71번길 19-0,역사관광지,절,Busanjin-gu,부산 부산진구 신암로71번길 19-0,35.1475582,129.0536203,127
150,화종암,부산 부산진구 백양산로 90-30,역사관광지,절,Busanjin-gu,부산 부산진구 백양산로 90-30,35.1758,129.03085,127
151,롯데호텔부산롯데아트홀,부산 부산진구 가야대로 772-0,공연/행사,공연장,Busanjin-gu,부산 부산진구 가야대로 772,35.156721950000005,129.05606329100732,127
152,찬누리작은도서관,부산 부산진구 백양산로 70-0,문화시설,문화생활시설기타,Busanjin-gu,부산 부산진구 백양산로 70-0,35.1758,129.03085,127
153,개금다락방,부산 부산진구 복지로41번길 53-0,문화시설,문화생활시설기타,Busanjin-gu,부산 부산진구 복지로41번길 53,35.1495275,129.0208887,127
154,보은사,부산 부산진구,역사관광지,절,Busanjin-gu,부산 부산진구,35.1632335,129.0529462,127
155,대승미륵사,부산 부산진구 엄광로256번길 9-0,역사관광지,절,Busanjin-gu,부산 부산진구 엄광로256번길 9-0,35.1529586,129.0393696,127
156,청목수목원,부산 부산진구 양성로6번길 53-0,휴양관광지,동식물원,Busanjin-gu,부산 부산진구,35.1632335,129.0529462,127
157,범천건강문화센터,부산 부산진구 신암로135번길 36-0,문화시설,문화생활시설기타,Busanjin-gu,부산 부산진구 신암로135번길 36-0,35.1517923,129.0487535,127
158,김재춘미술관,부산 부산진구 냉정로 215-0,문화시설,미술관,Busanjin-gu,부산 부산진구 냉정로 215,35.1508294,129.028627,127
159,태광암,부산 부산진구 개금본동로17번길 60-0,역사관광지,절,Busanjin-gu,부산 부산진구 개금본동로17번길 60-0,35.157834,129.023266,127
160,CGV서면,부산 부산진구 동천로 4-0,공연/행사,극장,Busanjin-gu,부산 부산진구 동천로 4-0,35.1547911,129.0617297,127
161,블라썸제이공방,부산 부산진구 전포대로 225-0,문화시설,문화생활시설기타,Busanjin-gu,부산 부산진구 전포대로 225,35.1574162,129.0654539,127
162,보련사,부산 부산진구 성지로114번길 55-6,역사관광지,절,Busanjin-gu,부산 부산진구 성지로114번길 55-6,35.1812272,129.0538886,127
163,아이존팝부산서면점,부산 부산진구 중앙대로 704-0,휴양관광지,놀이시설,Busanjin-gu,부산 부산진구 중앙대로 704,35.1555207,129.0595972679544,127
164,더파크,부산 부산진구 새싹로 295-0,휴양관광지,동식물원,Busanjin-gu,부산 부산진구 새싹로 295,35.1608974,129.056557,127
165,뽀로로도서관,부산 부산진구,문화시설,문화생활시설기타,Busanjin-gu,부산 부산진구,35.1632335,129.0529462,127
166,고운사,부산 부산진구 양정로 52-112,역사관광지,절,Busanjin-gu,부산 부산진구 양정로 52-112,35.1705632,129.0770189,127
167,옥수정사,부산 부산진구 양정로 88-60,역사관광지,절,Busanjin-gu,부산 부산진구 양정로 88-60,35.1705632,129.0770189,127
168,작당감,부산 부산진구 백양순환로119번길 9-0,문화시설,문화생활시설기타,Busanjin-gu,부산 부산진구 백양순환로119번길 9-0,35.171507,129.0410708,127
169,화지사,부산 부산진구 동평로 335-0,역사관광지,절,Busanjin-gu,부산 부산진구 동평로 335,35.1644264,129.0317246,127
170,부전도서관지하철북카페,부산 부산진구 서전로 40-0,문화시설,문화생활시설기타,Busanjin-gu,부산 부산진구 서전로 40-0,35.1577768,129.0682586,127
171,대각사,부산 부산진구 당감서로 171-0,역사관광지,절,Busanjin-gu,부산 부산진구 당감서로 171,35.1613606,129.0365868,127
172,대원정사,부산 부산진구 성지로94번길 151-17,역사관광지,절,Busanjin-gu,부산 부산진구 성지로94번길 151-17,35.1810809,129.0596036,127
173,아쿠아윌 트렌치002,부산 부산진구 성지로 98-1,휴양관광지,수족관,Busanjin-gu,부산 부산진구 성지로 98-1,35.1817292,129.0483753,127
174,부산상공회의소전시실,부산 부산진구 황령대로 24-0,문화시설,전시장,Busanjin-gu,부산 부산진구 황령대로 24-0,35.1484867,129.0627877,127
175,관음사,부산 부산진구 신천대로197번길 35-0,역사관광지,절,Busanjin-gu,부산 부산진구 신천대로197번길 35-0,35.1592866,129.0491807,127
176,국립부산국악원소극장,부산 부산진구 국악로 2-0,공연/행사,공연장,Busanjin-gu,부산 부산진구 국악로 2-0,35.1718924,129.0532978,127
177,퀸맵스튜디오,부산 부산진구 동천로108번길 11-0,문화시설,문화생활시설기타,Busanjin-gu,부산 부산진구 동천로108번길 11-0,35.1586549,129.0629678,127
178,부산전포동구상반려암,부산 부산진구,역사관광지,문화유적지,Busanjin-gu,부산 부산진구,35.1632335,129.0529462,127
179,금산사,부산 부산진구 개금본동로 32-4,역사관광지,절,Busanjin-gu,부산 부산진구 개금본동로 32-4,35.1581038,129.0216805,127
180,여여정사,부산 부산진구 엄광로248번길 32-0,역사관광지,절,Busanjin-gu,부산 부산진구 엄광로248번길 32-0,35.1521844,129.03864,127
181,감고개작은도서관,부산 부산진구 가야대로548번길 109-0,문화시설,문화생활시설기타,Busanjin-gu,부산 부산진구 가야대로548번길 109-0,35.149721,129.0327537,127
182,오즈홀1관,부산 부산진구 부전로 94-0,공연/행사,공연장,Busanjin-gu,부산 부산진구 부전로 94,35.1612095,129.0558146,127
183,동천문화홀,부산 부산진구 중앙대로666번길 50-0,문화시설,문화생활시설기타,Busanjin-gu,부산 부산진구 중앙대로666번길 50-0,35.1522042,129.0614356,127
184,상원사,부산 부산진구 엄광로412번길 19-0,역사관광지,절,Busanjin-gu,부산 부산진구,35.1632335,129.0529462,127
185,부산진구여성가족문화센터,부산 부산진구 백양대로 160-0,문화시설,문화생활시설기타,Busanjin-gu,부산 부산진구 백양대로 160,35.1624242,129.0464964,127
186,보명사,부산 부산진구 진남로304번길 19-0,역사관광지,절,Busanjin-gu,부산 부산진구 진남로304번길 19-0,35.1528172,129.0734138,127
187,히어로보드게임카페부산서면점,부산 부산진구 중앙대로 672-0,휴양관광지,놀이시설,Busanjin-gu,부산 부산진구 중앙대로 672,35.152987499999995,129.0596350607664,127
188,보현사,부산 부산진구 동성로71번길 13-0,역사관광지,절,Busanjin-gu,부산 부산진구 동성로71번길 13-0,35.1568923,129.0672063,127
189,성지문화원,부산 부산진구 동평로94번길 28-0,문화시설,문화생활시설기타,Busanjin-gu,부산 부산진구,35.1632335,129.0529462,127
190,보현정사,부산 부산진구 양정로 90-3,역사관광지,절,Busanjin-gu,부산 부산진구 양정로 90-3,35.1705632,129.0770189,127
191,선암사,부산 부산진구 백양산로 138-0,역사관광지,절,Busanjin-gu,부산 부산진구 백양산로 138,35.1758,129.03085,127
192,정란각,부산 동구 홍곡로 75-0,역사관광지,문화유적지,Dong-gu,부산 동구 홍곡로 75,35.1218456,129.0389205,80
193,차이나타운,부산 동구,휴양관광지,놀거리기타,Dong-gu,부산 동구,35.1157823,129.04265,80
194,보경사,부산 동구 구봉남길 22-51,역사관광지,절,Dong-gu,부산 동구 구봉남길 22-51,35.1237742,129.0341019,80
195,전국회의장정의화기념관,부산 동구 초량상로 110-0,문화시설,박물관/기념관,Dong-gu,부산 동구 초량상로 110,35.1219072,129.0402915,80
196,금강선원,부산 동구 망양로615번길 14-0,역사관광지,절,Dong-gu,부산 동구,35.1157823,129.04265,80
197,해명사,부산 동구 초량로108번길 19-0,역사관광지,절,Dong-gu,부산 동구 초량로108번길 19-0,35.1202113,129.0317403,80
198,오색빛깔공방,부산 동구 안창로 57-0,문화시설,문화생활시설기타,Dong-gu,부산 동구 안창로 57-0,35.1457674,129.043239,80
199,루미네수녀기념관,부산 동구 안창로 92-1,문화시설,박물관/기념관,Dong-gu,부산 동구 안창로 92-1,35.1457674,129.043239,80
200,정공단,부산 동구 정공단로 23-0,문화시설,박물관/기념관,Dong-gu,부산 동구 정공단로 23-0,35.1363632,129.0564138,80
201,천명사,부산 동구 수정공원남로 11-0,역사관광지,절,Dong-gu,부산 동구 수정공원남로 11-0,35.1272959,129.0381791,80
202,부산항북항홍보관,부산 동구 충장대로 206-0,문화시설,화랑/전시관,Dong-gu,부산 동구 충장대로 206,35.11768215,129.04910367706816,80
203,원각사,부산 동구 수정공원로105번길 20-0,역사관광지,절,Dong-gu,부산 동구,35.1157823,129.04265,80
204,석불사,부산 동구 증산로146번길 7-0,역사관광지,절,Dong-gu,부산 동구 증산로146번길 7-0,35.1394869,129.053859,80
205,보광선원,부산 동구 초량중로 55-0,역사관광지,절,Dong-gu,부산 동구 초량중로 55-0,35.1134893,129.0362499,80
206,부산항국제전시컨벤션센터,부산 동구 충장대로 206-0,문화시설,전시장,Dong-gu,부산 동구 충장대로 206,35.11768215,129.04910367706816,80
207,부산진일신여학교,부산 동구 정공단로17번길 17-0,역사관광지,문화유적지,Dong-gu,부산 동구 정공단로17번길 17-0,35.1350342,129.0528652,80
208,연화사,부산 동구 수정공원로105번길 16-0,역사관광지,절,Dong-gu,부산 동구,35.1157823,129.04265,80
209,이중섭거리,부산 동구,휴양관광지,놀거리기타,Dong-gu,부산 동구,35.1157823,129.04265,80
210,백제1927,부산 동구 중앙대로209번길 16-0,역사관광지,문화유적지,Dong-gu,부산 동구 중앙대로209번길 16-0,35.1162799,129.0388871,80
211,매축지문화원,부산 동구 성남삼로33번길 5-0,문화시설,문화원,Dong-gu,부산 동구,35.1157823,129.04265,80
212,부산진지성서문및성곽우주석,부산 동구 자성로 99-0,역사관광지,문화유적지,Dong-gu,부산 동구 자성로 99-0,35.133875,129.0548586,80
213,해광사,부산 동구 수정공원로 81-1,역사관광지,절,Dong-gu,부산 동구 수정공원로 81-1,35.1303992,129.0392945,80
214,성운암,부산 동구 증산서로 3-4,역사관광지,절,Dong-gu,부산 동구 증산서로 3-4,35.1371016,129.048913,80
215,보각사,부산 동구 초량북로39번길 9-0,역사관광지,절,Dong-gu,부산 동구,35.1157823,129.04265,80
216,불정사,부산 동구 증산서로 20-9,역사관광지,절,Dong-gu,부산 동구 증산서로 20-9,35.1371016,129.048913,80
217,삼송정사,부산 동구 고관로33번길 22-0,역사관광지,절,Dong-gu,부산 동구,35.1157823,129.04265,80
218,대한불교조계종상선암,부산 동구 중앙대로221번길 30-0,역사관광지,절,Dong-gu,부산 동구 중앙대로221번길 30-0,35.1172528,129.0393985,80
219,상해거리,부산 동구,휴양관광지,놀거리기타,Dong-gu,부산 동구,35.1157823,129.04265,80
220,문화공간반달,부산 동구 증산서로 52-0,문화시설,문화생활시설기타,Dong-gu,부산 동구 증산서로 52-0,35.1371016,129.048913,80
221,대법륜사,부산 동구 망양로 663-1,역사관광지,절,Dong-gu,부산 동구 망양로 663-1,35.1279643,129.0408448,80
222,마블익스피리언스부산,부산 동구 충장대로 206-0,문화시설,전시장,Dong-gu,부산 동구 충장대로 206,35.11768215,129.04910367706816,80
223,초록우산어린이북카페,부산 동구 수정공원로 15-0,문화시설,문화생활시설기타,Dong-gu,부산 동구 수정공원로 15-0,35.1357429,129.0429223,80
224,화엄사,부산 동구,역사관광지,절,Dong-gu,부산 동구,35.1157823,129.04265,80
225,관음사,부산 동구 망양로593번길 21-10,역사관광지,절,Dong-gu,부산 동구,35.1157823,129.04265,80
226,청룡사,부산 동구 망양로879번길 53-0,역사관광지,절,Dong-gu,부산 동구 망양로879번길 53,35.1393202,129.0475102,80
227,성불암,부산 동구,역사관광지,절,Dong-gu,부산 동구,35.1157823,129.04265,80
228,모크공방,부산 동구 자성로75번길 50-0,문화시설,문화생활시설기타,Dong-gu,부산 동구 자성로75번길 50-0,35.135519,129.0606504,80
229,자비원,부산 동구 초량상로 90-1,역사관광지,절,Dong-gu,부산 동구 초량상로 90-1,35.1142912,129.0358374,80
230,평화의 소녀상,부산 동구 고관로 18-0,역사관광지,기념비,Dong-gu,부산 동구 고관로 18-0,35.1200208,129.0417505,80
231,실상사,부산 동구 수정로68번길 7-0,역사관광지,절,Dong-gu,부산 동구 수정로68번길 7-0,35.1309037,129.0409833,80
232,다보사,부산 동구 수정공원남로 15-0,역사관광지,절,Dong-gu,부산 동구 수정공원남로 15-0,35.1272959,129.0381791,80
233,법천사,부산 동구 안창로21번길 32-0,역사관광지,절,Dong-gu,부산 동구,35.1157823,129.04265,80
234,구봉사,부산 동구,역사관광지,절,Dong-gu,부산 동구,35.1157823,129.04265,80
235,부산동구문화원,부산 동구 중앙대로349번길 20-0,문화시설,문화원,Dong-gu,부산 동구 중앙대로349번길 20-0,35.1267842,129.0461852,80
236,연등사,부산 동구 좌천동로 17-3,역사관광지,절,Dong-gu,부산 동구 좌천동로 17-3,35.1325512,129.0489586,80
237,묘심사,부산 동구 망양로 671-0,역사관광지,절,Dong-gu,부산 동구 망양로 671,35.1279643,129.0408448,80
238,좌천생활문화센터,부산 동구 증산서로 18-1,문화시설,문화생활시설기타,Dong-gu,부산 동구 증산서로 18-1,35.1371016,129.048913,80
239,안용복기념부산포개항문화관,부산 동구,문화시설,전시장,Dong-gu,부산 동구,35.1157823,129.04265,80
240,가온아트홀,부산 동구 자성로133번길 10-0,공연/행사,공연장,Dong-gu,부산 동구 자성로133번길 10-0,35.1383204,129.0645992,80
241,조선통신사역사관,부산 동구 자성로 99-0,문화시설,박물관/기념관,Dong-gu,부산 동구 자성로 99-0,35.133875,129.0548586,80
242,정발장군동상,부산 동구 중앙대로 0-0,역사관광지,기념비,Dong-gu,부산 동구 중앙대로 0-0,35.1316039,129.0517347,80
243,충혼탑,부산 동구,역사관광지,탑,Dong-gu,부산 동구,35.1157823,129.04265,80
244,부산광역시립중앙도서관수정분관,부산 동구 홍곡로 53-0,문화시설,문화생활시설기타,Dong-gu,부산 동구 홍곡로 53,35.1218456,129.0389205,80
245,북두칠성도서관,부산 동구 충장대로 160-0,문화시설,문화생활시설기타,Dong-gu,부산 동구 충장대로 160,35.1301776,129.0625829,80
246,북항오페라하우스건축중(2022년05월완공예정),부산 동구,공연/행사,공연장,Dong-gu,부산 동구,35.1157823,129.04265,80
247,동구어린이영어도서관,부산 동구 수성로 21-0,문화시설,문화생활시설기타,Dong-gu,부산 동구 수성로 21-0,35.1335304,129.0418614,80
248,금수사,부산 동구 망양로 533-1,역사관광지,절,Dong-gu,부산 동구 망양로 533-1,35.1279643,129.0408448,80
249,부산광역시동구도서관,부산 동구 성북로36번길 54-0,문화시설,문화생활시설기타,Dong-gu,부산 동구 성북로36번길 54-0,35.1380162,129.0508255,80
250,부산과학체험관,부산 동구 중앙대로260번길 11-0,문화시설,과학관,Dong-gu,부산 동구 중앙대로260번길 11-0,35.1193814,129.0440137,80
251,소림사,부산 동구 초량상로65번길 7-0,역사관광지,절,Dong-gu,부산 동구 초량상로65번길 7-0,35.1183658,129.0365572,80
252,갤러리수정,부산 동구 수정공원남로 28-0,문화시설,미술관,Dong-gu,부산 동구 수정공원남로 28-0,35.1272959,129.0381791,80
253,일터소극장,부산 동구 자성로141번길 13-0,공연/행사,공연장,Dong-gu,부산 동구 자성로141번길 13-0,35.1394701,129.0655129,80
254,범석심인당,부산 동구 구청로 19-0,역사관광지,절,Dong-gu,부산 동구 구청로 19-0,35.1287102,129.0450935,80
255,복합문화공간온뜰,부산 동구 초량상로157번길 19-0,문화시설,문화생활시설기타,Dong-gu,부산 동구 초량상로157번길 19-0,35.1252202,129.0433845,80
256,무척사,부산 동구 망양로931번가길 1-0,역사관광지,절,Dong-gu,부산 동구,35.1157823,129.04265,80
257,보광사,부산 동구 범상로1번길 35-0,역사관광지,절,Dong-gu,부산 동구 범상로1번길 35-0,35.1407876,129.0479367,80
258,백운사,부산 동구 수정공원로105번길 28-9,역사관광지,절,Dong-gu,부산 동구,35.1157823,129.04265,80
259,신광사,부산 동구,역사관광지,절,Dong-gu,부산 동구,35.1157823,129.04265,80
260,연화사,부산 동구 초량남로43번길 4-1,역사관광지,절,Dong-gu,부산 동구,35.1157823,129.04265,80
261,아란야,부산 동구 망양로873번길 15-0,역사관광지,절,Dong-gu,부산 동구,35.1157823,129.04265,80
262,까꼬막,부산 동구 망양로596번길 18-0,문화시설,문화생활시설기타,Dong-gu,부산 동구 망양로596번길 18-0,35.1231694,129.0353371,80
263,영가대,부산 동구 자성로 99-0,역사관광지,문화유적지,Dong-gu,부산 동구 자성로 99-0,35.133875,129.0548586,80
264,대명정사,부산 동구 망양로745번길 12-0,역사관광지,절,Dong-gu,부산 동구,35.1157823,129.04265,80
265,현불사부산선원,부산 동구 중앙대로180번길 16-2,역사관광지,절,Dong-gu,부산 동구 중앙대로180번길 16-2,35.1131737,129.0395401,80
266,망양로산복도로전시관,부산 동구 망양로 488-0,문화시설,화랑/전시관,Dong-gu,부산 동구 망양로 488,35.1160453,129.0338108,80
267,월봉사,부산 동구 망양로593번길 33-0,역사관광지,절,Dong-gu,부산 동구,35.1157823,129.04265,80
268,자성대,부산 동구 자성로 99-0,역사관광지,문화유적지,Dong-gu,부산 동구 자성로 99-0,35.133875,129.0548586,80
269,이바구공작소,부산 동구 망양로486번길 14-13,문화시설,문화생활시설기타,Dong-gu,부산 동구 망양로486번길 14-13,35.1174073,129.0335546,80
270,반야사,부산 동구 범곡남로 23-0,역사관광지,절,Dong-gu,부산 동구 범곡남로 23-0,35.138131,129.055107,80
271,부산오페라하우스건축중(2024년하반기개관예정),부산 동구,공연/행사,공연장,Dong-gu,부산 동구,35.1157823,129.04265,80
272,동래읍성도서관,부산 동래구 동래로159번길 153-0,문화시설,문화생활시설기타,Dongnae-gu,부산 동래구 동래로159번길 153-0,35.2059486,129.09077,98
273,롯데시네마동래,부산 동래구 중앙대로 1393-0,공연/행사,극장,Dongnae-gu,부산 동래구 중앙대로 1393,35.1975994,129.0791363,98
274,우장춘기념관,부산 동래구 우장춘로62번길 7-0,문화시설,박물관/기념관,Dongnae-gu,부산 동래구 우장춘로62번길 7-0,35.2137839,129.0735425,98
275,부산광역시립명장도서관,부산 동래구 명안로46번길 35-0,문화시설,문화생활시설기타,Dongnae-gu,부산 동래구 명안로46번길 35-0,35.2006125,129.1070386,98
276,복천박물관,부산 동래구 복천로 63-0,문화시설,박물관/기념관,Dongnae-gu,부산 동래구 복천로 63-0,35.2056576,129.0866768,98
277,금강식물원,부산 동래구 우장춘로 221-0,휴양관광지,동식물원,Dongnae-gu,부산 동래구 우장춘로 221,35.2094199,129.0702108,98
278,CGV동래,부산 동래구 중앙대로 1523-0,공연/행사,극장,Dongnae-gu,부산 동래구 중앙대로 1523,35.2212535,129.0856217,98
279,충렬사,부산 동래구 충렬대로 345-0,역사관광지,문화유적지,Dongnae-gu,부산 동래구 충렬대로 345,35.2042036,129.0792861,98
280,허심청,부산 동래구 온천장로107번길 32-0,휴양관광지,온천,Dongnae-gu,부산 동래구 온천장로107번길 32-0,35.2204749,129.08282,98
281,안락누리도서관,부산 동래구 명안로10번길 64-0,문화시설,문화생활시설기타,Dongnae-gu,부산 동래구 명안로10번길 64,35.1975969,129.1099453,98
282,부산해양자연사박물관,부산 동래구 우장춘로 175-0,문화시설,박물관/기념관,Dongnae-gu,부산 동래구 우장춘로 175-0,35.2094199,129.0702108,98
283,글로빌아트홀,부산 동래구 사직북로48번길 162-0,공연/행사,공연장,Dongnae-gu,부산 동래구 사직북로48번길 162,35.204092,129.0632145,98
284,만불정사,부산 동래구 충렬대로335번길 15-0,역사관광지,절,Dongnae-gu,부산 동래구 충렬대로335번길 15-0,35.1992019,129.0956076,98
285,부산민속예술관,부산 동래구 우장춘로 195-46,문화시설,문화생활시설기타,Dongnae-gu,부산 동래구 우장춘로 195-46,35.2094199,129.0702108,98
286,갤러리공감,부산 동래구 동래로136번길 14-0,문화시설,화랑/전시관,Dongnae-gu,부산 동래구 동래로136번길 14-0,35.2049154,129.0846157,98
287,용수암,부산 동래구 쇠미로 179-0,역사관광지,절,Dongnae-gu,부산 동래구 쇠미로 179,35.1957959,129.0539672,98
288,포그니,부산 동래구 연안로59번길 99-0,문화시설,문화생활시설기타,Dongnae-gu,부산 동래구 연안로59번길 99-0,35.1942181,129.1048479,98
289,황룡사,부산 동래구 복천로77번길 9-0,역사관광지,절,Dongnae-gu,부산 동래구,35.2052,129.0837,98
290,옥선사,부산 동래구 명서로 148-4,역사관광지,절,Dongnae-gu,부산 동래구 명서로 148-4,35.2151454,129.0966012,98
291,1797팽나무하우스,부산 동래구 충렬대로256번길 31-0,문화시설,문화생활시설기타,Dongnae-gu,부산 동래구 충렬대로256번길 31,35.2003306,129.0869468,98
292,송공단,부산 동래구 동래시장길 27-0,역사관광지,문화유적지,Dongnae-gu,부산 동래구 동래시장길 27-0,35.203593,129.0855815,98
293,천불암,부산 동래구 복천로 91-6,역사관광지,절,Dongnae-gu,부산 동래구 복천로 91-6,35.2056576,129.0866768,98
294,대덕사,부산 동래구 구만덕로 235-29,역사관광지,절,Dongnae-gu,부산 동래구 구만덕로 235-29,35.2100391,129.0656845,98
295,금어사,부산 동래구 우장춘로 155-32,역사관광지,절,Dongnae-gu,부산 동래구 우장춘로 155-32,35.2131658,129.0716834,98
296,길상암,부산 동래구 쇠미로119번길 76-0,역사관광지,절,Dongnae-gu,부산 동래구 쇠미로119번길 76,35.2030637,129.0579574,98
297,소림사,부산 동래구,역사관광지,절,Dongnae-gu,부산 동래구,35.2052,129.0837,98
298,동래온천 노천족탕,부산 동래구 금강공원로26번길 21-0,휴양관광지,온천,Dongnae-gu,부산 동래구,35.2052,129.0837,98
299,누리문화센터,부산 동래구 충렬대로459번길 20-0,문화시설,문화생활시설기타,Dongnae-gu,부산 동래구 충렬대로459번길 20-0,35.1970183,129.1102564,98
300,수덕사,부산 동래구 쇠미로221번길 54-3,역사관광지,절,Dongnae-gu,부산 동래구 쇠미로221번길 54-3,35.2107649,129.0634291,98
301,동학사,부산 동래구 쇠미로119번길 109-0,역사관광지,절,Dongnae-gu,부산 동래구 쇠미로119번길 109-0,35.2030637,129.0579574,98
302,파베프로젝트,부산 동래구 중앙대로1333번길 42-4,문화시설,문화생활시설기타,Dongnae-gu,부산 동래구 중앙대로1333번길 42-4,35.2061278,129.0766301,98
303,무량정사,부산 동래구 온천장로125번길 41-3,역사관광지,절,Dongnae-gu,부산 동래구,35.2052,129.0837,98
304,부산만불회포교원,부산 동래구 중앙대로 1523-0,역사관광지,절,Dongnae-gu,부산 동래구 중앙대로 1523,35.2212535,129.0856217,98
305,광명선원,부산 동래구 석사북로 106-0,역사관광지,절,Dongnae-gu,부산 동래구 석사북로 106,35.2007058,129.0618493,98
306,금강암,부산 동래구 명륜로 205-0,역사관광지,절,Dongnae-gu,부산 동래구 명륜로 205,35.2168132,129.0854495,98
307,동래향교,부산 동래구 동래로 103-0,역사관광지,문화유적지,Dongnae-gu,부산 동래구 동래로 103,35.21163645,129.076146229268,98
308,장관청,부산 동래구 명륜로94번길 36-6,역사관광지,문화유적지,Dongnae-gu,부산 동래구 명륜로94번길 36-6,35.2047701,129.0842472,98
309,대원사,부산 동래구 쇠미로129번길 45-0,역사관광지,절,Dongnae-gu,부산 동래구 쇠미로129번길 45-0,35.2054317,129.0592744,98
310,연화사,부산 동래구 쇠미로81번길 33-0,역사관광지,절,Dongnae-gu,부산 동래구 쇠미로81번길 33-0,35.2013345,129.0548407,98
311,정수사,부산 동래구 구만덕로 285-43,역사관광지,절,Dongnae-gu,부산 동래구 구만덕로 285-43,35.2100391,129.0656845,98
312,허심청,부산 동래구 금강공원로20번길 23-0,휴양관광지,온천,Dongnae-gu,부산 동래구 금강공원로20번길 23-0,35.2204749,129.08282,98
313,달마정사,부산 동래구 쇠미로 177-0,역사관광지,절,Dongnae-gu,부산 동래구 쇠미로 177,35.1957959,129.0539672,98
314,미륵암,부산 동래구 복천로5번나길 24-0,역사관광지,절,Dongnae-gu,부산 동래구,35.2052,129.0837,98
315,수가화랑,부산 동래구 차밭골로50번길 22-0,문화시설,화랑/전시관,Dongnae-gu,부산 동래구 차밭골로50번길 22-0,35.2185048,129.0777963,98
316,한국불교태고종연화사,부산 동래구 충렬대로256번가길 30-4,역사관광지,절,Dongnae-gu,부산 동래구 충렬대로256번가길 30-4,35.2000873,129.0871319,98
317,충렬탑,부산 동래구,역사관광지,탑,Dongnae-gu,부산 동래구,35.2052,129.0837,98
318,정수사,부산 동래구 사직북로48번길 149-0,역사관광지,절,Dongnae-gu,부산 동래구 사직북로48번길 149,35.204092,129.0632145,98
319,무량사,부산 동래구 복천로59번길 28-7,역사관광지,절,Dongnae-gu,부산 동래구 복천로59번길 28-7,35.208604,129.0908976,98
320,연화정사,부산 동래구 명안로18번길 97-0,역사관광지,절,Dongnae-gu,부산 동래구 명안로18번길 97,35.1975655,129.1103849,98
321,동래부동헌충신당,부산 동래구 명륜로112번길 61-0,역사관광지,절,Dongnae-gu,부산 동래구 명륜로112번길 61-0,35.2023897,129.0892528,98
322,반도성인게임방,부산 동래구 아시아드대로228번길 22-0,휴양관광지,놀이시설,Dongnae-gu,부산 동래구 아시아드대로228번길 22-0,35.2036443,129.0683947,98
323,내성사,부산 동래구 금정마을로139번가길 71-0,역사관광지,절,Dongnae-gu,부산 동래구,35.2052,129.0837,98
324,성불사,부산 동래구 온천장로119번길 24-7,역사관광지,절,Dongnae-gu,부산 동래구 온천장로119번길 24-7,35.2216814,129.0831942,98
325,명신사,부산 동래구 호현길 30-1,역사관광지,절,Dongnae-gu,부산 동래구 호현길 30-1,35.1988365,129.1014169,98
326,대한불교조계종보탑사,부산 동래구 쇠미로129번길 143-51,역사관광지,절,Dongnae-gu,부산 동래구 쇠미로129번길 143-51,35.2054317,129.0592744,98
327,아트케이갤러리,부산 동래구 차밭골로50번길 22-0,문화시설,화랑/전시관,Dongnae-gu,부산 동래구 차밭골로50번길 22-0,35.2185048,129.0777963,98
328,풀잎문화센터동래교실,부산 동래구 충렬대로 186-0,문화시설,문화생활시설기타,Dongnae-gu,부산 동래구 충렬대로 186,35.2042036,129.0792861,98
329,원광사,부산 동래구 금정마을로 30-0,역사관광지,절,Dongnae-gu,부산 동래구 금정마을로 30-0,35.2120247,129.0679196,98
330,전등사,부산 동래구 동래로215번가길 22-13,역사관광지,절,Dongnae-gu,부산 동래구,35.2052,129.0837,98
331,효자암,부산 동래구 구만덕로 285-36,역사관광지,절,Dongnae-gu,부산 동래구 구만덕로 285-36,35.2100391,129.0656845,98
332,명륜심인당,부산 동래구 시실로24번길 56-0,역사관광지,절,Dongnae-gu,부산 동래구 시실로24번길 56,35.2154712,129.0863413,98
333,원광사,부산 동래구 쇠미로 3-22,역사관광지,절,Dongnae-gu,부산 동래구 쇠미로 3-22,35.1957959,129.0539672,98
334,자비암,부산 동래구 복천로5번가길 46-0,역사관광지,절,Dongnae-gu,부산 동래구,35.2052,129.0837,98
335,도솔사,부산 동래구 쇠미로217번길 80-0,역사관광지,절,Dongnae-gu,부산 동래구 쇠미로217번길 80-0,35.2105655,129.0630241,98
336,온고지신작은도서관,부산 동래구 충렬대로126번길 39-0,문화시설,문화생활시설기타,Dongnae-gu,부산 동래구 충렬대로126번길 39-0,35.2047296,129.0742726,98
337,인생문,부산 동래구,역사관광지,문화유적지,Dongnae-gu,부산 동래구,35.2052,129.0837,98
338,어반브릿지,부산 동래구 충렬대로237번길 28-0,문화시설,문화생활시설기타,Dongnae-gu,부산 동래구 충렬대로237번길 28-0,35.2057154,129.0840111,98
339,금강대옥불사,부산 동래구 만덕고개길 335-30,역사관광지,절,Dongnae-gu,부산 동래구 만덕고개길 335-30,35.2141373,129.0564606,98
340,법륜사,부산 동래구 동래로 162-0,역사관광지,절,Dongnae-gu,부산 동래구 동래로 162,35.2070774,129.0839991,98
341,금강사,부산 동래구 우장춘로 211-0,역사관광지,절,Dongnae-gu,부산 동래구 우장춘로 211,35.2094199,129.0702108,98
342,부산복천동고분군,부산 동래구 복천로 66-0,역사관광지,능묘,Dongnae-gu,부산 동래구 복천로 66-0,35.2056576,129.0866768,98
343,정각사,부산 동래구 시실로 19-9,역사관광지,절,Dongnae-gu,부산 동래구 시실로 19-9,35.2153112,129.0877105,98
344,동래읍성지,부산 동래구,역사관광지,문화유적지,Dongnae-gu,부산 동래구,35.2052,129.0837,98
345,약수정사,부산 동래구 우장춘로 175-146,역사관광지,절,Dongnae-gu,부산 동래구 우장춘로 175-146,35.2094199,129.0702108,98
346,경수원,부산 동래구 금강로25번길 7-0,역사관광지,절,Dongnae-gu,부산 동래구 금강로25번길 7-0,35.2138175,129.0735813,98
347,금불암,부산 동래구 명장로63번길 90-25,역사관광지,절,Dongnae-gu,부산 동래구 명장로63번길 90-25,35.2081898,129.1052233,98
348,동래패총,부산 동래구,역사관광지,문화유적지,Dongnae-gu,부산 동래구,35.2052,129.0837,98
349,동래읍성역사관,부산 동래구 동래역사관길 18-0,문화시설,화랑/전시관,Dongnae-gu,부산 동래구,35.2052,129.0837,98
350,금정선원,부산 동래구 우장춘로 157-59,역사관광지,절,Dongnae-gu,부산 동래구 우장춘로 157-59,35.2094199,129.0702108,98
351,동래읍성임진왜란역사관,부산 동래구 충렬대로 지하,문화시설,박물관/기념관,Dongnae-gu,부산 동래구,35.2052,129.0837,98
352,법상사,부산 동래구 금정마을로77번길 10-7,역사관광지,절,Dongnae-gu,부산 동래구 금정마을로77번길 10-7,35.2126254,129.0637751,98
353,소림사,부산 동래구 우장춘로 177-52,역사관광지,절,Dongnae-gu,부산 동래구 우장춘로 177-52,35.2094199,129.0702108,98
354,천태암,부산 동래구 쇠미로129번길 102-6,역사관광지,절,Dongnae-gu,부산 동래구 쇠미로129번길 102-6,35.2054317,129.0592744,98
355,현화사,부산 동래구 우장춘로67번길 68-0,역사관광지,절,Dongnae-gu,부산 동래구 우장춘로67번길 68,35.2142427,129.0700381,98
356,팔금산미술관,부산 동래구 충렬대로107번길 104-0,문화시설,미술관,Dongnae-gu,부산 동래구 충렬대로107번길 104-0,35.20974,129.0731,98
357,보림사,부산 동래구 쇠미로81번길 28-0,역사관광지,절,Dongnae-gu,부산 동래구 쇠미로81번길 28-0,35.2013345,129.0548407,98
358,현지사,부산 동래구 중앙대로 1325-0,역사관광지,절,Dongnae-gu,부산 동래구 중앙대로 1325,35.1975994,129.0791363,98
359,동래부동헌,부산 동래구 명륜로112번길 61-0,역사관광지,문화유적지,Dongnae-gu,부산 동래구 명륜로112번길 61-0,35.2023897,129.0892528,98
360,열린아트홀,부산 동래구 온천장로 7-0,공연/행사,공연장,Dongnae-gu,부산 동래구 온천장로 7-0,35.2207533,129.0846463,98
361,웨이브코랄,부산 동래구 충렬대로410번길 25-0,휴양관광지,수족관,Dongnae-gu,부산 동래구 충렬대로410번길 25-0,35.1949542,129.1024026,98
362,지장본원사,부산 동래구 시실로107번길 27-0,역사관광지,절,Dongnae-gu,부산 동래구 시실로107번길 27-0,35.2127962,129.0964657,98
363,옥련암,부산 동래구 쇠미로129번길 102-27,역사관광지,절,Dongnae-gu,부산 동래구 쇠미로129번길 102-27,35.2054317,129.0592744,98
364,동래문화원,부산 동래구 문화로 80-0,문화시설,문화원,Dongnae-gu,부산 동래구 문화로 80-0,35.211008,129.083761,98
365,도림사,부산 동래구,역사관광지,절,Dongnae-gu,부산 동래구,35.2052,129.0837,98
366,동명사,부산 동래구 만덕고개길 402-0,역사관광지,절,Dongnae-gu,부산 동래구 만덕고개길 402,35.2141373,129.0564606,98
367,용문사,부산 동래구 온천천로 321-0,역사관광지,절,Dongnae-gu,부산 동래구 온천천로 321,35.2167782,129.0845213,98
368,에코아트아쿠아,부산 동래구 석사북로 55-0,휴양관광지,수족관,Dongnae-gu,부산 동래구 석사북로 55-0,35.2057039,129.0665517,98
369,이주홍문학관,부산 동래구 금강로61번길 20-12,문화시설,전시장,Dongnae-gu,부산 동래구 금강로61번길 20-12,35.2170826,129.0744986,98
370,대성암,부산 강서구 낙동남로683번길 85-0,역사관광지,절,Gangseo-gu,부산 강서구,35.212,128.9805,54
371,용적사,부산 강서구 생곡산단로39번길 24-0,역사관광지,절,Gangseo-gu,부산 강서구 생곡산단로39번길 24-0,35.133573,128.8836779,54
372,길상사,부산 강서구 신촌소류지길 163-4,역사관광지,절,Gangseo-gu,부산 강서구,35.212,128.9805,54
373,숭림사,부산 강서구 낙동남로 635-0,역사관광지,절,Gangseo-gu,부산 강서구 낙동남로 635,35.1135944,128.9248073,54
374,육주선원,부산 강서구 공항로1309번길 198-11,역사관광지,절,Gangseo-gu,부산 강서구 공항로1309번길 198-11,35.2170788,128.9840833,54
375,망산도유주암유주비각,부산 강서구,역사관광지,문화유적지,Gangseo-gu,부산 강서구,35.212,128.9805,54
376,용화사,부산 강서구 낙동북로138번길 57-0,역사관광지,절,Gangseo-gu,부산 강서구,35.212,128.9805,54
377,강서문화원,부산 강서구 대저로 254-0,문화시설,문화원,Gangseo-gu,부산 강서구 대저로 254,35.21492,128.9697463,54
378,산양사,부산 강서구 낙동남로456번길 50-0,역사관광지,절,Gangseo-gu,부산 강서구,35.212,128.9805,54
379,흥국사,부산 강서구 허왕후길 182-0,역사관광지,절,Gangseo-gu,부산 강서구,35.212,128.9805,54
380,을숙도대교전망대교량역사관,부산 강서구 을숙도대로 96-0,문화시설,전시장,Gangseo-gu,부산 강서구 을숙도대로 96-0,35.0913965,128.9180481,54
381,용평사,부산 강서구 낙동남로991번길 55-19,역사관광지,절,Gangseo-gu,부산 강서구 낙동남로991번길 55-19,35.1157339,128.9227104,54
382,강서도서관,부산 강서구 공항로811번길 10-0,문화시설,문화생활시설기타,Gangseo-gu,부산 강서구 공항로811번길 10-0,35.1803851,128.9549618,54
383,국회부산도서관건축중(2022년03월개관예정),부산 강서구 명지국제1로 161-0,문화시설,문화생활시설기타,Gangseo-gu,부산 강서구 명지국제1로 161,35.0972054,128.9046073,54
384,국회부산도서관건축중(2022년03월말개관예정),부산 강서구 명지국제1로 161-0,문화시설,문화생활시설기타,Gangseo-gu,부산 강서구 명지국제1로 161,35.0972054,128.9046073,54
385,지사도서관,부산 강서구 과학산단2로20번길 5-0,문화시설,문화생활시설기타,Gangseo-gu,부산 강서구 과학산단2로20번길 5-0,35.1507353,128.8360635,54
386,가덕도굿당,부산 강서구 서천로42번길 52-123,역사관광지,절,Gangseo-gu,부산 강서구 서천로42번길 52-123,35.0340152,128.8221666,54
387,정거마을문화거리,부산 강서구,휴양관광지,놀거리기타,Gangseo-gu,부산 강서구,35.212,128.9805,54
388,부산자원순환협력센터,부산 강서구 생곡산단1로24번길 58-0,문화시설,전시장,Gangseo-gu,부산 강서구 생곡산단1로24번길 58-0,35.1340341,128.8844666,54
389,CGV부산명지,부산 강서구 명지국제8로10번길 38-0,공연/행사,극장,Gangseo-gu,부산 강서구 명지국제8로10번길 38-0,35.0941391,128.903237,54
390,수능엄사,부산 강서구 낙동남로 754-16,역사관광지,절,Gangseo-gu,부산 강서구 낙동남로 754-16,35.1135944,128.9248073,54
391,부산항홍보관,부산 강서구 신항로 96-87,문화시설,화랑/전시관,Gangseo-gu,부산 강서구 신항로 96-87,35.0831789,128.8348433,54
392,청량사,부산 강서구 제도로 29-0,역사관광지,절,Gangseo-gu,부산 강서구 제도로 29-0,35.1452915,128.9138499,54
393,백암사,부산 강서구 상덕로97번가길 17-0,역사관광지,절,Gangseo-gu,부산 강서구,35.212,128.9805,54
394,성원아트홀,부산 강서구 명지오션시티4로 88-0,공연/행사,공연장,Gangseo-gu,부산 강서구 명지오션시티4로 88,35.0819869,128.9035841,54
395,천성진성,부산 강서구,역사관광지,문화유적지,Gangseo-gu,부산 강서구,35.212,128.9805,54
396,가덕도척화비,부산 강서구,역사관광지,문화유적지,Gangseo-gu,부산 강서구,35.212,128.9805,54
397,보광사,부산 강서구 공항진입로 32-0,역사관광지,절,Gangseo-gu,부산 강서구 공항진입로 32-0,35.1796117,128.9519049,54
398,강서브라이트센터,부산 강서구 공항로811번길 10-0,문화시설,문화생활시설기타,Gangseo-gu,부산 강서구 공항로811번길 10-0,35.1803851,128.9549618,54
399,부산강서기적의도서관,부산 강서구 명지오션시티10로 80-0,문화시설,문화생활시설기타,Gangseo-gu,부산 강서구 명지오션시티10로 80-0,35.086657,128.9007962,54
400,국회부산도서관건축중(2022년02월개관예정),부산 강서구 명지국제1로 161-0,문화시설,문화생활시설기타,Gangseo-gu,부산 강서구 명지국제1로 161,35.0972054,128.9046073,54
401,낙동강아트홀건축중(2023년하반기준공예정),부산 강서구,공연/행사,공연장,Gangseo-gu,부산 강서구,35.212,128.9805,54
402,보현사,부산 강서구 가락대로1397번길 0-0,역사관광지,절,Gangseo-gu,부산 강서구 가락대로1397번길 0-0,35.1922331,128.9003635,54
403,부산공항갤러리,부산 강서구 공항진입로 108-0,문화시설,화랑/전시관,Gangseo-gu,부산 강서구 공항진입로 108-0,35.1796117,128.9519049,54
404,생곡동가달고분,부산 강서구,역사관광지,문화유적지,Gangseo-gu,부산 강서구,35.212,128.9805,54
405,문수암,부산 강서구 호계로 0-0,역사관광지,절,Gangseo-gu,부산 강서구 호계로 0-0,35.2028539,128.8923061,54
406,천성공부방문고,부산 강서구 가덕해안로821번길 90-1,문화시설,문화생활시설기타,Gangseo-gu,부산 강서구 가덕해안로821번길 90-1,35.0287924,128.8187527,54
407,김해죽도왜성,부산 강서구,역사관광지,문화유적지,Gangseo-gu,부산 강서구,35.212,128.9805,54
408,가락도원,부산 강서구 수가로716번길 2-9,문화시설,문화생활시설기타,Gangseo-gu,부산 강서구,35.212,128.9805,54
409,보련사포교원,부산 강서구 둔치강변길 728-0,역사관광지,절,Gangseo-gu,부산 강서구 둔치강변길 728,35.1633164,128.8938357,54
410,성불암,부산 강서구 가덕해안로2번가길 106-28,역사관광지,절,Gangseo-gu,부산 강서구,35.212,128.9805,54
411,해남사,부산 강서구 순아3구길 12-0,역사관광지,절,Gangseo-gu,부산 강서구,35.212,128.9805,54
412,차곳,부산 강서구 공항앞길 209-0,문화시설,문화원,Gangseo-gu,부산 강서구 공항앞길 209,35.1788509,128.9521201,54
413,록봉민속교육박물관,부산 강서구 가덕해안로 741-0,문화시설,박물관/기념관,Gangseo-gu,부산 강서구 가덕해안로 741,35.0226088,128.8228787,54
414,천용사,부산 강서구 낙동북로73번가길 134-0,역사관광지,절,Gangseo-gu,부산 강서구 낙동북로73번가길 134,35.2242061,128.9401053,54
415,수도암,부산 강서구 명동길 68-0,역사관광지,절,Gangseo-gu,부산 강서구 명동길 68,35.1421057,128.8417688,54
416,부산혜원학교 도서관,부산 강서구 공항로 1319-0,문화시설,문화생활시설기타,Gangseo-gu,부산 강서구 공항로 1319,35.121328,128.9367378,54
417,롯데시네마부산명지,부산 강서구 명지국제6로 107-0,공연/행사,극장,Gangseo-gu,부산 강서구 명지국제6로 107-0,35.0943386,128.9213394,54
418,혜덕사,부산 강서구 가덕해안로1169번길 109-0,역사관광지,절,Gangseo-gu,부산 강서구 가덕해안로1169번길 109-0,35.0137926,128.8339846,54
419,온누리문화센터,부산 강서구 명지국제8로 229-0,문화시설,문화생활시설기타,Gangseo-gu,부산 강서구 명지국제8로 229,35.0943081,128.901224,54
420,용화사,부산 강서구 울만로25번길 61-0,역사관광지,절,Gangseo-gu,부산 강서구 울만로25번길 61-0,35.1752546,128.9239142,54
421,강서명지풀잎문화센터,부산 강서구 명지오션시티4로 82-0,문화시설,문화생활시설기타,Gangseo-gu,부산 강서구 명지오션시티4로 82,35.0819869,128.9035841,54
422,강서열린커뮤니티센터,부산 강서구 공항로1309번길 83-22,문화시설,문화생활시설기타,Gangseo-gu,부산 강서구 공항로1309번길 83-22,35.2170788,128.9840833,54
423,강서예술촌,부산 강서구 신노전로 63-0,문화시설,전시장,Gangseo-gu,부산 강서구 신노전로 63-0,35.1601052,128.9333534,54
424,법성사,부산 금정구,역사관광지,절,Geumjeong-gu,부산 금정구,35.2429,129.0926,133
425,성불사,부산 금정구 금사로 135-0,역사관광지,절,Geumjeong-gu,부산 금정구 금사로 135,35.2179465,129.1098619,133
426,리우,부산 금정구 온천장로 132-0,문화시설,문화생활시설기타,Geumjeong-gu,부산 금정구 온천장로 132,35.2228422,129.0853984,133
427,아트스페이스리,부산 금정구 금샘로 30-1,문화시설,문화생활시설기타,Geumjeong-gu,부산 금정구 금샘로 30-1,35.2662315,129.0848303,133
428,금정스포원어린이작은도서관,부산 금정구 체육공원로399번길 324-0,문화시설,문화생활시설기타,Geumjeong-gu,부산 금정구 체육공원로399번길 324,35.2905529,129.1014858,133
429,회명사,부산 금정구 금샘로17번안길 41-0,역사관광지,절,Geumjeong-gu,부산 금정구 금샘로17번안길 41-0,35.2284921,129.0749445,133
430,재난안전체험관,부산 금정구 체육공원로399번길 324-0,문화시설,문화생활시설기타,Geumjeong-gu,부산 금정구 체육공원로399번길 324,35.2905529,129.1014858,133
431,소소담갤러리,부산 금정구 상현로79번길 40-0,문화시설,화랑/전시관,Geumjeong-gu,부산 금정구 상현로79번길 40-0,35.2662952,129.113309,133
432,선불도량,부산 금정구 금샘로 531-0,역사관광지,절,Geumjeong-gu,부산 금정구 금샘로 531,35.2662315,129.0848303,133
433,샛별공방,부산 금정구 팔송로7번길 37-1,문화시설,문화생활시설기타,Geumjeong-gu,부산 금정구 팔송로7번길 37-1,35.2714969,129.0916966,133
434,자갈치소극장,부산 금정구 부곡로 77-0,공연/행사,공연장,Geumjeong-gu,부산 금정구 부곡로 77,35.2212394,129.0893274,133
435,정수암,부산 금정구 북문로 160-0,역사관광지,절,Geumjeong-gu,부산 금정구 북문로 160,35.25619,129.05163,133
436,상현재실,부산 금정구 상현로105번길 90-0,역사관광지,고택/생가/민속마을,Geumjeong-gu,부산 금정구,35.2429,129.0926,133
437,보현사,부산 금정구 온천장로125번길 68-0,역사관광지,절,Geumjeong-gu,부산 금정구 온천장로125번길 68,35.2231234,129.0835954,133
438,아르코공연연습센터금정,부산 금정구 체육공원로 7-0,공연/행사,공연장,Geumjeong-gu,부산 금정구 체육공원로 7-0,35.2882139,129.1104885,133
439,노포동고분군,부산 금정구,역사관광지,문화유적지,Geumjeong-gu,부산 금정구,35.2429,129.0926,133
440,천기공자발동공건강센터,부산 금정구 오시게로54번길 12-0,문화시설,문화생활시설기타,Geumjeong-gu,부산 금정구 오시게로54번길 12-0,35.2215911,129.0888815,133
441,범어사등나무군생지,부산 금정구 범어사로 244-0,역사관광지,문화유적지,Geumjeong-gu,부산 금정구 범어사로 244-0,35.2790458,129.0784751,133
442,혜일암,부산 금정구 대룡2길 22-0,역사관광지,절,Geumjeong-gu,부산 금정구,35.2429,129.0926,133
443,굴룽굴룽라탄작업실,부산 금정구 수림로75번길 2-1,문화시설,문화생활시설기타,Geumjeong-gu,부산 금정구 수림로75번길 2-1,35.2389813,129.0841296,133
444,메이커라이브러리금정,부산 금정구 금정도서관로 33-0,문화시설,문화생활시설기타,Geumjeong-gu,부산 금정구 금정도서관로 33-0,35.2722675,129.1003,133
445,대승사,부산 금정구 중앙대로1826번길 64-0,역사관광지,절,Geumjeong-gu,부산 금정구 중앙대로1826번길 64,35.2472184,129.093659,133
446,용락암,부산 금정구 상마1길 54-0,역사관광지,절,Geumjeong-gu,부산 금정구,35.2429,129.0926,133
447,보운사,부산 금정구 서금로 107-1,역사관광지,절,Geumjeong-gu,부산 금정구 서금로 107-1,35.2179171,129.1035815,133
448,안국선문화원,부산 금정구 금단로 124-0,역사관광지,절,Geumjeong-gu,부산 금정구 금단로 124,35.2604478,129.09318380159272,133
449,원효암,부산 금정구 범어사로 250-0,역사관광지,절,Geumjeong-gu,부산 금정구 범어사로 250,35.2843108,129.06977463532505,133
450,금용사,부산 금정구 회천로25번길 20-0,역사관광지,절,Geumjeong-gu,부산 금정구 회천로25번길 20-0,35.2275089,129.1148388,133
451,연수암,부산 금정구 산성로 382-0,역사관광지,절,Geumjeong-gu,부산 금정구 산성로 382,35.24282,129.05907,133
452,관음암,부산 금정구 청룡예전로96번길 17-0,역사관광지,절,Geumjeong-gu,부산 금정구 청룡예전로96번길 17-0,35.2795037,129.0867805,133
453,소정꿈나무작은도서관,부산 금정구 소정로 19-0,문화시설,문화생활시설기타,Geumjeong-gu,부산 금정구 소정로 19-0,35.2281712,129.0808586,133
454,회룡정사,부산 금정구 금샘로485번길 63-0,역사관광지,절,Geumjeong-gu,부산 금정구 금샘로485번길 63-0,35.2671123,129.0820567,133
455,제이무브먼트갤러리,부산 금정구 동부곡로5번길 101-0,문화시설,화랑/전시관,Geumjeong-gu,부산 금정구 동부곡로5번길 101,35.2297006,129.0929664,133
456,수안정사,부산 금정구 금샘로 361-0,역사관광지,절,Geumjeong-gu,부산 금정구 금샘로 361,35.2662315,129.0848303,133
457,계명암,부산 금정구 범어사로 244-0,역사관광지,절,Geumjeong-gu,부산 금정구 범어사로 244-0,35.2790458,129.0784751,133
458,골굴사포교원,부산 금정구 식물원로75번길 20-0,역사관광지,절,Geumjeong-gu,부산 금정구 식물원로75번길 20-0,35.22501,129.08013,133
459,부곡1동만화작은도서관,부산 금정구 동부곡로6번길 29-0,문화시설,문화생활시설기타,Geumjeong-gu,부산 금정구 동부곡로6번길 29-0,35.2245752,129.0920416,133
460,대혜사,부산 금정구 금강로 466-1,역사관광지,절,Geumjeong-gu,부산 금정구 금강로 466-1,35.2721158,129.0890267,133
461,원효암,부산 금정구 범어사로 256-0,역사관광지,절,Geumjeong-gu,부산 금정구 범어사로 256,35.2790458,129.0784751,133
462,은빛사랑채작은도서관,부산 금정구 서동로60번길 13-22,문화시설,문화생활시설기타,Geumjeong-gu,부산 금정구 서동로60번길 13-22,35.2176618,129.0943919,133
463,불광사,부산 금정구 금샘로485번길 188-0,역사관광지,절,Geumjeong-gu,부산 금정구 금샘로485번길 188,35.26909575,129.07503937063692,133
464,책마을보드랑작은도서관,부산 금정구 서동로 115-1,문화시설,문화생활시설기타,Geumjeong-gu,부산 금정구 서동로 115-1,35.2177944,129.095715,133
465,장전생활문화센터,부산 금정구 금강로335번길 27-0,문화시설,문화생활시설기타,Geumjeong-gu,부산 금정구 금강로335번길 27-0,35.237929,129.0800489,133
466,아마빌레뮤직홀,부산 금정구 무학송로 144-0,문화시설,문화생활시설기타,Geumjeong-gu,부산 금정구 무학송로 144,35.2354554,129.0926623,133
467,캠퍼스디,부산 금정구 금사로 130-0,문화시설,문화생활시설기타,Geumjeong-gu,부산 금정구 금사로 130,35.2179465,129.1098619,133
468,금정문화원,부산 금정구 중앙대로1826번길 10-4,문화시설,문화원,Geumjeong-gu,부산 금정구 중앙대로1826번길 10-4,35.2472184,129.093659,133
469,미리내작은도서관,부산 금정구 금강로347번길 32-0,문화시설,문화생활시설기타,Geumjeong-gu,부산 금정구 금강로347번길 32-0,35.2389826,129.0835908,133
470,호국사,부산 금정구 산성로 874-0,역사관광지,절,Geumjeong-gu,부산 금정구 산성로 874,35.24282,129.05907,133
471,지장암,부산 금정구 범어사로 180-0,역사관광지,절,Geumjeong-gu,부산 금정구 범어사로 180,35.2790458,129.0784751,133
472,국청사,부산 금정구 북문로 42-0,역사관광지,절,Geumjeong-gu,부산 금정구 북문로 42-0,35.25619,129.05163,133
473,대원정사,부산 금정구 중앙대로1944번길 13-0,역사관광지,절,Geumjeong-gu,부산 금정구 중앙대로1944번길 13-0,35.2572894,129.0924232,133
474,미륵사,부산 금정구 북문로 126-0,역사관광지,절,Geumjeong-gu,부산 금정구 북문로 126,35.25619,129.05163,133
475,증인아트홀,부산 금정구 장전온천천로113번길 17-0,문화시설,문화생활시설기타,Geumjeong-gu,부산 금정구 장전온천천로113번길 17-0,35.2351395,129.0881828,133
476,무명사,부산 금정구 금샘로 473-0,역사관광지,절,Geumjeong-gu,부산 금정구 금샘로 473,35.2662315,129.0848303,133
477,금천선원,부산 금정구 금샘로 271-0,역사관광지,절,Geumjeong-gu,부산 금정구 금샘로 271,35.2662315,129.0848303,133
478,금정북파크,부산 금정구 중앙대로 1621-0,문화시설,문화생활시설기타,Geumjeong-gu,부산 금정구 중앙대로 1621,35.2699841,129.0927392,133
479,갤러리산,부산 금정구 범어사로 311-0,문화시설,화랑/전시관,Geumjeong-gu,부산 금정구 범어사로 311,35.2790458,129.0784751,133
480,아쿠아온,부산 금정구 수림로62번길 23-0,휴양관광지,수족관,Geumjeong-gu,부산 금정구 수림로62번길 23-0,35.2409404,129.0857728,133
481,금용사,부산 금정구 금샘로 201-0,역사관광지,절,Geumjeong-gu,부산 금정구 금샘로 201,35.2662315,129.0848303,133
482,요산문학관,부산 금정구 팔송로 60-6,문화시설,전시장,Geumjeong-gu,부산 금정구 팔송로 60-6,35.2718858,129.0859625,133
483,서동예술창작공간,부산 금정구 서동로149번길 8-0,문화시설,문화생활시설기타,Geumjeong-gu,부산 금정구 서동로149번길 8-0,35.2150014,129.1030788,133
484,청년창조발전소꿈터플러스,부산 금정구 금정로 63-1,문화시설,문화생활시설기타,Geumjeong-gu,부산 금정구 금정로 63-1,35.2409393,129.0874191,133
485,예술공간Dot,부산 금정구 금샘로 35-0,문화시설,문화생활시설기타,Geumjeong-gu,부산 금정구 금샘로 35-0,35.2662315,129.0848303,133
486,덕운사,부산 금정구 동부곡로27번다길 15-0,역사관광지,절,Geumjeong-gu,부산 금정구,35.2429,129.0926,133
487,보광정사,부산 금정구 반송로 440-9,역사관광지,절,Geumjeong-gu,부산 금정구 반송로 440-9,35.2151129,129.1130564,133
488,내원암,부산 금정구 범어사로 248-0,역사관광지,절,Geumjeong-gu,부산 금정구 범어사로 248,35.2790458,129.0784751,133
489,범어사,부산 금정구 범어사로 250-0,역사관광지,절,Geumjeong-gu,부산 금정구 범어사로 250,35.2843108,129.06977463532505,133
490,홍법사,부산 금정구 두구로33번길 202-0,역사관광지,절,Geumjeong-gu,부산 금정구,35.2429,129.0926,133
491,금정도서관,부산 금정구 금정도서관로 33-0,문화시설,문화생활시설기타,Geumjeong-gu,부산 금정구 금정도서관로 33-0,35.2722675,129.1003,133
492,금정산성,부산 금정구,역사관광지,성,Geumjeong-gu,부산 금정구,35.2429,129.0926,133
493,롯데시네마오투,부산 금정구 중앙대로 1607-0,공연/행사,극장,Geumjeong-gu,부산 금정구 중앙대로 1607,35.2699841,129.0927392,133
494,금정산성동문,부산 금정구,역사관광지,문화유적지,Geumjeong-gu,부산 금정구,35.2429,129.0926,133
495,금샘도서관,부산 금정구 기찰로 94-0,문화시설,문화생활시설기타,Geumjeong-gu,부산 금정구 기찰로 94,35.2324017,129.0928354,133
496,안국선원,부산 금정구 금단로 124-0,역사관광지,절,Geumjeong-gu,부산 금정구 금단로 124,35.2604478,129.09318380159272,133
497,금정산부곡온천,부산 금정구 수림로20번길 36-0,휴양관광지,온천,Geumjeong-gu,부산 금정구 수림로20번길 36-0,35.2418951,129.0903762,133
498,부산광역시립서동도서관,부산 금정구 서부로76번길 5-0,문화시설,문화생활시설기타,Geumjeong-gu,부산 금정구 서부로76번길 5-0,35.2198825,129.0997347,133
499,광명사,부산 금정구 금샘로17번안길 45-0,역사관광지,절,Geumjeong-gu,부산 금정구 금샘로17번안길 45-0,35.2284921,129.0749445,133
500,메가박스부산대,부산 금정구 장전로12번길 55-0,공연/행사,극장,Geumjeong-gu,부산 금정구 장전로12번길 55-0,35.229477,129.0881751,133
501,금샘도서관,부산 금정구,문화시설,문화생활시설기타,Geumjeong-gu,부산 금정구,35.2429,129.0926,133
502,부곡암,부산 금정구 윤산로 73-21,역사관광지,절,Geumjeong-gu,부산 금정구 윤산로 73-21,35.2276591,129.0973702,133
503,청련암,부산 금정구 범어사로 246-0,역사관광지,절,Geumjeong-gu,부산 금정구 범어사로 246,35.2790458,129.0784751,133
504,오륜대한국순교자박물관,부산 금정구 오륜대로 106-1,문화시설,박물관/기념관,Geumjeong-gu,부산 금정구 오륜대로 106-1,35.2455506,129.0993571,133
505,금사락,부산 금정구 개좌로 162-0,공연/행사,공연장,Geumjeong-gu,부산 금정구 개좌로 162,35.2157266,129.1090819,133
506,탄생의신비관청소년성문화센터,부산 금정구 체육공원로399번길 324-0,문화시설,문화생활시설기타,Geumjeong-gu,부산 금정구 체육공원로399번길 324,35.2905529,129.1014858,133
507,초록마술극장,부산 금정구 기찰로108번길 49-0,공연/행사,극장,Geumjeong-gu,부산 금정구 기찰로108번길 49-0,35.2422363,129.0954867,133
508,도원사,부산 금정구 북문로 139-0,역사관광지,절,Geumjeong-gu,부산 금정구 북문로 139,35.25619,129.05163,133
509,청송암,부산 금정구 서곡로52번안길 36-4,역사관광지,절,Geumjeong-gu,부산 금정구 서곡로52번안길 36-4,35.220078,129.1022167,133
510,만성암,부산 금정구 상마1길 53-0,역사관광지,절,Geumjeong-gu,부산 금정구,35.2429,129.0926,133
511,대원사,부산 금정구 중앙대로 2383-26,역사관광지,절,Geumjeong-gu,부산 금정구 중앙대로 2383-26,35.2699841,129.0927392,133
512,용천사,부산 금정구 작장1길 139-38,역사관광지,절,Geumjeong-gu,부산 금정구 작장1길 139-38,35.2838588,129.0910975,133
513,붐빌,부산 금정구 체육공원로 595-0,문화시설,문화생활시설기타,Geumjeong-gu,부산 금정구 체육공원로 595,35.2882139,129.1104885,133
514,대성암,부산 금정구 범어사로 250-0,역사관광지,절,Geumjeong-gu,부산 금정구 범어사로 250,35.2843108,129.06977463532505,133
515,금정예술공연지원센터,부산 금정구 금강로 252-1,공연/행사,공연장,Geumjeong-gu,부산 금정구 금강로 252-1,35.2721158,129.0890267,133
516,석림정사약사전,부산 금정구 윤산로 145-0,역사관광지,절,Geumjeong-gu,부산 금정구 윤산로 145,35.2276591,129.0973702,133
517,금정세대공감센터,부산 금정구 금정로 29-6,문화시설,문화생활시설기타,Geumjeong-gu,부산 금정구 금정로 29-6,35.2274754,129.0855263,133
518,인터플레이클럽,부산 금정구 금정로 89-0,공연/행사,공연장,Geumjeong-gu,부산 금정구 금정로 89-0,35.2302371,129.0848109,133
519,보광암,부산 금정구 산성로 946-0,역사관광지,절,Geumjeong-gu,부산 금정구 산성로 946,35.24282,129.05907,133
520,섯골생활문화센터,부산 금정구 서곡로33번길 9-0,문화시설,문화생활시설기타,Geumjeong-gu,부산 금정구 서곡로33번길 9-0,35.2164833,129.1038474,133
521,부산음악창작소,부산 금정구 금강로 252-1,문화시설,문화생활시설기타,Geumjeong-gu,부산 금정구 금강로 252-1,35.2721158,129.0890267,133
522,꿈나래어린이극장,부산 금정구 체육공원로399번길 324-0,공연/행사,공연장,Geumjeong-gu,부산 금정구 체육공원로399번길 324,35.2905529,129.1014858,133
523,안심치유정원,부산 금정구 체육공원로 545-0,휴양관광지,동식물원,Geumjeong-gu,부산 금정구 체육공원로 545,35.2882139,129.1104885,133
524,금샘마을도서관,부산 금정구 금강로 673-0,문화시설,문화생활시설기타,Geumjeong-gu,부산 금정구 금강로 673,35.2262943,129.0825347,133
525,원광사,부산 금정구 금사로211번길 14-2,역사관광지,절,Geumjeong-gu,부산 금정구 금사로211번길 14-2,35.2297033,129.1200319,133
526,관음정사,부산 금정구 범어사로 322-0,역사관광지,절,Geumjeong-gu,부산 금정구 범어사로 322-0,35.2790458,129.0784751,133
527,셔우드아트홀,부산 금정구 금강로321번길 15-0,공연/행사,공연장,Geumjeong-gu,부산 금정구 금강로321번길 15-0,35.2376683,129.0807219,133
528,유법사,부산 금정구 북문로 24-0,역사관광지,절,Geumjeong-gu,부산 금정구 북문로 24-0,35.25619,129.05163,133
529,관음사,부산 금정구 오륜대로 145-121,역사관광지,절,Geumjeong-gu,부산 금정구 오륜대로 145-121,35.2455506,129.0993571,133
530,금강암,부산 금정구 범어사로 254-0,역사관광지,절,Geumjeong-gu,부산 금정구 범어사로 254,35.2790458,129.0784751,133
531,달마사,부산 금정구 부산대학로63번길 2-1,역사관광지,절,Geumjeong-gu,부산 금정구 부산대학로63번길 2-1,35.2304429,129.0839657,133
532,법전사,부산 금정구 중앙대로 2138-9,역사관광지,절,Geumjeong-gu,부산 금정구 중앙대로 2138,35.2699841,129.0927392,133
533,호국사,부산 금정구 금샘로17번길 8-4,역사관광지,절,Geumjeong-gu,부산 금정구 금샘로17번길 8-4,35.227786,129.0763331,133
534,금정아이꿈자람작은도서관,부산 금정구 금정로 29-6,문화시설,문화생활시설기타,Geumjeong-gu,부산 금정구 금정로 29-6,35.2274754,129.0855263,133
535,아르코아트홀,부산 금정구 체육공원로19번길 5-0,공연/행사,공연장,Geumjeong-gu,부산 금정구 체육공원로19번길 5-0,35.2478114,129.0962909,133
536,보덕사,부산 금정구,역사관광지,절,Geumjeong-gu,부산 금정구,35.2429,129.0926,133
537,범어사성보박물관,부산 금정구 범어사로 296-0,문화시설,박물관/기념관,Geumjeong-gu,부산 금정구 범어사로 296,35.2790458,129.0784751,133
538,범어사성보박물관,부산 금정구 범어사로 250-0,문화시설,박물관/기념관,Geumjeong-gu,부산 금정구 범어사로 250,35.2843108,129.06977463532505,133
539,성불사,부산 금정구 범어사로 58-46,역사관광지,절,Geumjeong-gu,부산 금정구 범어사로 58-46,35.2790458,129.0784751,133
540,금성암,부산 금정구 공해2길 102-0,역사관광지,절,Geumjeong-gu,부산 금정구,35.2429,129.0926,133
541,수도사,부산 금정구 윤산로 135-0,역사관광지,절,Geumjeong-gu,부산 금정구 윤산로 135,35.2276591,129.0973702,133
542,대한불교혜일암,부산 금정구 대룡2길 22-0,역사관광지,절,Geumjeong-gu,부산 금정구,35.2429,129.0926,133
543,천불정사,부산 금정구 금강로 230-9,역사관광지,절,Geumjeong-gu,부산 금정구 금강로 230-9,35.2262943,129.0825347,133
544,무위암,부산 금정구 부산대학로63번길 2-1,역사관광지,절,Geumjeong-gu,부산 금정구 부산대학로63번길 2-1,35.2304429,129.0839657,133
545,사자암,부산 금정구 상마1길 26-0,역사관광지,절,Geumjeong-gu,부산 금정구,35.2429,129.0926,133
546,문수선원,부산 금정구 청룡예전로 100-0,역사관광지,절,Geumjeong-gu,부산 금정구 청룡예전로 100-0,35.2748404,129.0907401,133
547,남율사,부산 금정구 대두로29번길 16-0,역사관광지,절,Geumjeong-gu,부산 금정구,35.2429,129.0926,133
548,회동동복합커뮤니티문화센터,부산 금정구 회천로5번길 2-0,문화시설,문화생활시설기타,Geumjeong-gu,부산 금정구 회천로5번길 2-0,35.2261452,129.1149518,133
549,대원사,부산 금정구 금정도서관로 60-0,역사관광지,절,Geumjeong-gu,부산 금정구 금정도서관로 60-0,35.2722675,129.1003,133
550,범어사대웅전,부산 금정구 범어사로 250-0,역사관광지,문화유적지,Geumjeong-gu,부산 금정구 범어사로 250,35.2843108,129.06977463532505,133
551,원효사,부산 금정구 범어사로 58-75,역사관광지,절,Geumjeong-gu,부산 금정구 범어사로 58-75,35.2790458,129.0784751,133
552,금화사,부산 금정구 구서중앙로15번길 21-0,역사관광지,절,Geumjeong-gu,부산 금정구 구서중앙로15번길 21-0,35.2540891,129.0895114,133
553,범어사조계문,부산 금정구 범어사로 250-0,역사관광지,문화유적지,Geumjeong-gu,부산 금정구 범어사로 250,35.2843108,129.06977463532505,133
554,머드레작은도서관,부산 금정구 범어천로52번길 25-3,문화시설,문화생활시설기타,Geumjeong-gu,부산 금정구 범어천로52번길 25-3,35.2709191,129.091716,133
555,킴스아트필드미술관,부산 금정구 죽전1길 29-0,문화시설,미술관,Geumjeong-gu,부산 금정구 죽전1길 29-0,35.252289,129.0546236,133
556,법해사,부산 금정구 금샘로 405-0,역사관광지,절,Geumjeong-gu,부산 금정구 금샘로 405,35.2662315,129.0848303,133
557,해동용궁사,부산 기장군 용궁길 86-0,역사관광지,절,Gijang-gun,부산 기장군 용궁길 86-0,35.192335,129.2204459,153
558,카덴96,부산 기장군 기장대로 1075-3,휴양관광지,온천,Gijang-gun,부산 기장군 기장대로 1075-3,35.3311736,129.247094,153
559,청광식물원,부산 기장군,휴양관광지,동식물원,Gijang-gun,부산 기장군,35.2446,129.223,153
560,대도사,부산 기장군 상곡길 70-0,역사관광지,절,Gijang-gun,부산 기장군,35.2446,129.223,153
561,보덕사,부산 기장군 기장대로 1303-38,역사관광지,절,Gijang-gun,부산 기장군 기장대로 1303,35.3311736,129.247094,153
562,무궁사,부산 기장군 청원길 215-13,역사관광지,절,Gijang-gun,부산 기장군 청원길 215-13,35.2936605,129.2314519,153
563,해강수석전시관,부산 기장군 일광로 261-0,문화시설,화랑/전시관,Gijang-gun,부산 기장군 일광로 261-0,35.31492,129.26159,153
564,용소농원,부산 기장군 기장대로 1627-0,휴양관광지,동식물원,Gijang-gun,부산 기장군 기장대로 1627,35.3311736,129.247094,153
565,공명암,부산 기장군 삼성길 10-24,역사관광지,절,Gijang-gun,부산 기장군 삼성길 10-24,35.2635473,129.2338388,153
566,청광사,부산 기장군 고촌로18번길 10-0,역사관광지,절,Gijang-gun,부산 기장군 고촌로18번길 10-0,35.2404958,129.1720853,153
567,극락암,부산 기장군 용궁길 44-59,역사관광지,절,Gijang-gun,부산 기장군 용궁길 44-59,35.192335,129.2204459,153
568,옥남사,부산 기장군 오리길 420-32,역사관광지,절,Gijang-gun,부산 기장군 오리길 420-32,35.36216,129.2755,153
569,용두사,부산 기장군 갑골길 14-10,역사관광지,절,Gijang-gun,부산 기장군,35.2446,129.223,153
570,아람농원,부산 기장군 백운산길 63-0,휴양관광지,동식물원,Gijang-gun,부산 기장군,35.2446,129.223,153
571,오송암,부산 기장군 대청로36번길 18-0,역사관광지,절,Gijang-gun,부산 기장군 대청로36번길 18-0,35.2371271,129.215222,153
572,용궁암,부산 기장군 판곡길 15-8,역사관광지,절,Gijang-gun,부산 기장군,35.2446,129.223,153
573,이연주갤러리,부산 기장군 동암해안길 6-0,문화시설,화랑/전시관,Gijang-gun,부산 기장군 동암해안길 6-0,35.1959662,129.2245808,153
574,봉화사,부산 기장군 월내4길 49-18,역사관광지,절,Gijang-gun,부산 기장군 월내4길 49-18,35.3286017,129.2722526,153
575,갤러리이,부산 기장군 철마로 513-0,문화시설,화랑/전시관,Gijang-gun,부산 기장군 철마로 513,35.27544,129.14606,153
576,기장읍성,부산 기장군 읍내로104번길 19-0,역사관광지,문화유적지,Gijang-gun,부산 기장군 읍내로104번길 19-0,35.2437742,129.2155542,153
577,약수선원,부산 기장군 석산길 99-0,역사관광지,절,Gijang-gun,부산 기장군 석산길 99-0,35.2078926,129.2098595,153
578,구월정사,부산 기장군 중리1길 22-19,역사관광지,절,Gijang-gun,부산 기장군,35.2446,129.223,153
579,연화산해광사,부산 기장군 기장해안로 340-0,역사관광지,절,Gijang-gun,부산 기장군 기장해안로 340,35.2248054,129.2297666,153
580,보명사,부산 기장군 차성서로101번길 27-0,역사관광지,절,Gijang-gun,부산 기장군 차성서로101번길 27-0,35.2428609,129.2082698,153
581,월성사,부산 기장군 월내2길 88-0,역사관광지,절,Gijang-gun,부산 기장군,35.2446,129.223,153
582,상선암,부산 기장군 와여1길 37-0,역사관광지,절,Gijang-gun,부산 기장군,35.2446,129.223,153
583,고려암,부산 기장군 화전2길 51-0,역사관광지,절,Gijang-gun,부산 기장군,35.2446,129.223,153
584,덕주사,부산 기장군 장곡길 63-10,역사관광지,절,Gijang-gun,부산 기장군 장곡길 63-10,35.30396,129.25007,153
585,수효사,부산 기장군 방모산2길 20-23,역사관광지,절,Gijang-gun,부산 기장군 방모산2길 20-23,35.3405168,129.2537799,153
586,대성사,부산 기장군 달음길 30-18,역사관광지,절,Gijang-gun,부산 기장군,35.2446,129.223,153
587,횡금사,부산 기장군 곡천길 286-320,역사관광지,절,Gijang-gun,부산 기장군 곡천길 286,35.2773244,129.1906238,153
588,기장도예관,부산 기장군 임랑해안길 82-0,문화시설,화랑/전시관,Gijang-gun,부산 기장군 임랑해안길 82,35.3170707,129.2630681,153
589,원효대,부산 기장군 상곡길 45-8,역사관광지,절,Gijang-gun,부산 기장군,35.2446,129.223,153
590,묘법사,부산 기장군,역사관광지,절,Gijang-gun,부산 기장군,35.2446,129.223,153
591,국립부산어린이과학관건축중(2022년1월개관예정),부산 기장군 동부산관광6로 59-0,문화시설,과학관,Gijang-gun,부산 기장군 동부산관광6로 59-0,35.1992151,129.2112373,153
592,장안요,부산 기장군 하장안1길 24-0,문화시설,문화생활시설기타,Gijang-gun,부산 기장군,35.2446,129.223,153
593,약수정사,부산 기장군 이화로 109-29,역사관광지,절,Gijang-gun,부산 기장군 이화로 109-29,35.2705653,129.2321697,153
594,용주사,부산 기장군 일광로 435-6,역사관광지,절,Gijang-gun,부산 기장군 일광로 435-6,35.31492,129.26159,153
595,시연갤러리,부산 기장군 구연방곡로 91-0,문화시설,전시장,Gijang-gun,부산 기장군 구연방곡로 91-0,35.3204109,129.1841731,153
596,대덕사,부산 기장군 갑골길 14-10,역사관광지,절,Gijang-gun,부산 기장군,35.2446,129.223,153
597,예홈동부산전시장,부산 기장군 기장해안로 118-0,문화시설,전시장,Gijang-gun,부산 기장군 기장해안로 118-0,35.2248054,129.2297666,153
598,백련암,부산 기장군 장안로 490-75,역사관광지,절,Gijang-gun,부산 기장군 장안로 490,35.3706495,129.2157318,153
599,약수암,부산 기장군 달음산길 10-0,역사관광지,절,Gijang-gun,부산 기장군,35.2446,129.223,153
600,광덕사,부산 기장군 칠암3길 66-0,역사관광지,절,Gijang-gun,부산 기장군,35.2446,129.223,153
601,정토사,부산 기장군 차성로249번길 50-0,역사관광지,절,Gijang-gun,부산 기장군 차성로249번길 50-0,35.2394437,129.2118247,153
602,대승사,부산 기장군 양수1길 67-0,역사관광지,절,Gijang-gun,부산 기장군 양수1길 67-0,35.3325022,129.1607097,153
603,미황사,부산 기장군 내리길 80-56,역사관광지,절,Gijang-gun,부산 기장군 내리길 80-56,35.2159812,129.1682918,153
604,봉화암,부산 기장군,역사관광지,절,Gijang-gun,부산 기장군,35.2446,129.223,153
605,원력사,부산 기장군 임곡1길 48-5,역사관광지,절,Gijang-gun,부산 기장군,35.2446,129.223,153
606,칠암작은도서관,부산 기장군 문오성길 485-5,문화시설,문화생활시설기타,Gijang-gun,부산 기장군,35.2446,129.223,153
607,금선사,부산 기장군 신평1길 32-68,역사관광지,절,Gijang-gun,부산 기장군,35.2446,129.223,153
608,정관박물관,부산 기장군 정관중앙로 122-0,문화시설,박물관/기념관,Gijang-gun,부산 기장군 정관중앙로 122,35.3280145,129.1824235,153
609,안데르센극장,부산 기장군 장안로 211-0,공연/행사,공연장,Gijang-gun,부산 기장군 장안로 211,35.3706495,129.2157318,153
610,해동성취사,부산 기장군 일광로 429-0,역사관광지,절,Gijang-gun,부산 기장군 일광로 429,35.31492,129.26159,153
611,장안사,부산 기장군 장안로 482-0,역사관광지,절,Gijang-gun,부산 기장군 장안로 482,35.3706495,129.2157318,153
612,아홉산숲,부산 기장군 미동길 37-1,휴양관광지,동식물원,Gijang-gun,부산 기장군 미동길 37-1,35.2871856,129.1702733,153
613,국립부산과학관,부산 기장군 동부산관광6로 59-0,문화시설,과학관,Gijang-gun,부산 기장군 동부산관광6로 59-0,35.1992151,129.2112373,153
614,아난티코브,부산 기장군 기장해안로 268-32,휴양관광지,종합위락시설,Gijang-gun,부산 기장군 기장해안로 268-32,35.2248054,129.2297666,153
615,고리원자력홍보관,부산 기장군,문화시설,박물관/기념관,Gijang-gun,부산 기장군,35.2446,129.223,153
616,롯데시네마드라이브오시리아,부산 기장군,공연/행사,극장,Gijang-gun,부산 기장군,35.2446,129.223,153
617,CGV정관,부산 기장군 정관중앙로 45-0,공연/행사,극장,Gijang-gun,부산 기장군 정관중앙로 45-0,35.3280145,129.1824235,153
618,국립수산과학관,부산 기장군 기장해안로 216-0,문화시설,과학관,Gijang-gun,부산 기장군 기장해안로 216,35.2248054,129.2297666,153
619,해광사,부산 기장군 기장해안로 340-0,역사관광지,절,Gijang-gun,부산 기장군 기장해안로 340,35.2248054,129.2297666,153
620,메가박스정관,부산 기장군 정관6로 39-0,공연/행사,극장,Gijang-gun,부산 기장군 정관6로 39-0,35.3196151,129.1793852,153
621,기장도서관,부산 기장군 차성동로126번길 13-5,문화시설,문화생활시설기타,Gijang-gun,부산 기장군 차성동로126번길 13-5,35.2490043,129.2177214,153
622,부산 칠드런스 뮤지엄,부산 기장군 기장해안로 172-0,휴양관광지,테마파크,Gijang-gun,부산 기장군 기장해안로 172,35.2248054,129.2297666,153
623,고리스포츠문화센터,부산 기장군 해맞이로 454-0,문화시설,문화생활시설기타,Gijang-gun,부산 기장군 해맞이로 454,35.31354,129.24921,153
624,정관온천,부산 기장군 정관8로 16-5,휴양관광지,온천,Gijang-gun,부산 기장군 정관8로 16-5,35.3224598,129.1774812,153
625,소원사,부산 기장군 정관중앙로 198-0,역사관광지,절,Gijang-gun,부산 기장군 정관중앙로 198,35.3280145,129.1824235,153
626,정관도서관,부산 기장군 정관중앙로 138-11,문화시설,문화생활시설기타,Gijang-gun,부산 기장군 정관중앙로 138-11,35.3280145,129.1824235,153
627,롯데시네마동부산아울렛,부산 기장군 기장해안로 147-0,공연/행사,극장,Gijang-gun,부산 기장군 기장해안로 147,35.2248054,129.2297666,153
628,은진사,부산 기장군 고무로 271-47,역사관광지,절,Gijang-gun,부산 기장군 고무로 271-47,35.3309372,129.2810111,153
629,본다빈치스퀘어부산,부산 기장군 기장해안로 98-0,문화시설,화랑/전시관,Gijang-gun,부산 기장군 기장해안로 98-0,35.2248054,129.2297666,153
630,히어로테마파크정관점,부산 기장군 정관중앙로 45-0,휴양관광지,테마파크,Gijang-gun,부산 기장군 정관중앙로 45-0,35.3280145,129.1824235,153
631,안적사,부산 기장군 내리길 461-16,역사관광지,절,Gijang-gun,부산 기장군 내리길 461-16,35.2149963,129.2013227,153
632,약사암,부산 기장군 동서길 79-11,역사관광지,절,Gijang-gun,부산 기장군 동서길 79-11,35.2556772,129.1999393,153
633,임씨농장,부산 기장군 선암길 58-7,휴양관광지,동식물원,Gijang-gun,부산 기장군,35.2446,129.223,153
634,일광사,부산 기장군 이천8길 64-7,역사관광지,절,Gijang-gun,부산 기장군 이천8길 64-7,35.2698452,129.2369404,153
635,심우정사,부산 기장군 반룡1길 16-0,역사관광지,절,Gijang-gun,부산 기장군,35.2446,129.223,153
636,성주암,부산 기장군 웅상대로 636-7,역사관광지,절,Gijang-gun,부산 기장군 웅상대로 636-7,35.35399,129.13754,153
637,위드에블린,부산 기장군 모전2길 21-0,문화시설,문화생활시설기타,Gijang-gun,부산 기장군 모전2길 21-0,35.3354778,129.1696379,153
638,해용사,부산 기장군 기장해안로 635-0,역사관광지,절,Gijang-gun,부산 기장군 기장해안로 635,35.2248054,129.2297666,153
639,백운선원,부산 기장군 내리길 65-7,역사관광지,절,Gijang-gun,부산 기장군 내리길 65-7,35.2149963,129.2013227,153
640,능엄사,부산 기장군 반송로 1305-28,역사관광지,절,Gijang-gun,부산 기장군 반송로 1305-28,35.2514646,129.2205571,153
641,영일암,부산 기장군 기장해안로 233-1,역사관광지,절,Gijang-gun,부산 기장군 기장해안로 233-1,35.2248054,129.2297666,153
642,물조은온천,부산 기장군 반송로 1650-0,휴양관광지,온천,Gijang-gun,부산 기장군 반송로 1650,35.2514646,129.2205571,153
643,금광사,부산 기장군 임곡1길 197-0,역사관광지,절,Gijang-gun,부산 기장군,35.2446,129.223,153
644,보광사,부산 기장군 정관상곡2길 33-124,역사관광지,절,Gijang-gun,부산 기장군,35.2446,129.223,153
645,장관청,부산 기장군 읍내로68번길 23-1,역사관광지,문화유적지,Gijang-gun,부산 기장군 읍내로68번길 23-1,35.2442803,129.2117771,153
646,동백농원,부산 기장군 정관로 49-42,휴양관광지,동식물원,Gijang-gun,부산 기장군 정관로 49-42,35.3222563,129.1940209,153
647,학림사,부산 기장군 일광로 285-7,역사관광지,절,Gijang-gun,부산 기장군 일광로 285-7,35.31492,129.26159,153
648,법화사,부산 기장군 병산로 0-0,역사관광지,절,Gijang-gun,부산 기장군 병산로 0-0,35.3416204,129.1785031,153
649,관음암,부산 기장군 산수곡길 102-0,역사관광지,절,Gijang-gun,부산 기장군,35.2446,129.223,153
650,낙안사,부산 기장군 강변길 10-0,역사관광지,절,Gijang-gun,부산 기장군,35.2446,129.223,153
651,의열사,부산 기장군 와여1길 28-21,역사관광지,절,Gijang-gun,부산 기장군,35.2446,129.223,153
652,일광사,부산 기장군 원당길 9-29,역사관광지,절,Gijang-gun,부산 기장군,35.2446,129.223,153
653,백운산관음암,부산 기장군 양수길 56-14,역사관광지,절,Gijang-gun,부산 기장군 양수길 56-14,35.330241,129.1627714,153
654,원효암,부산 기장군 상곡길 45-8,역사관광지,절,Gijang-gun,부산 기장군,35.2446,129.223,153
655,선바위유원지,부산 기장군,휴양관광지,유원지,Gijang-gun,부산 기장군,35.2446,129.223,153
656,옥정사,부산 기장군 달음길 101-0,역사관광지,절,Gijang-gun,부산 기장군,35.2446,129.223,153
657,연암수목원,부산 기장군 철마천로 212-0,휴양관광지,동식물원,Gijang-gun,부산 기장군 철마천로 212,35.2717094,129.131771,153
658,모노플렉스오시리아,부산 기장군 동부산관광로 34-0,공연/행사,극장,Gijang-gun,부산 기장군 동부산관광로 34-0,35.1968203,129.2091728,153
659,고촌어울림도서관,부산 기장군 고촌로 51-0,문화시설,문화생활시설기타,Gijang-gun,부산 기장군 고촌로 51-0,35.2394652,129.1701795,153
660,청량사,부산 기장군 임밖길 12-0,역사관광지,절,Gijang-gun,부산 기장군,35.2446,129.223,153
661,광명사,부산 기장군 정관로 1070-140,역사관광지,절,Gijang-gun,부산 기장군 정관로 1070,35.3222563,129.1940209,153
662,기장군청차성아트홀,부산 기장군 기장대로 560-0,공연/행사,공연장,Gijang-gun,부산 기장군 기장대로 560,35.2443679,129.22221599536627,153
663,기장죽성리왜성,부산 기장군,역사관광지,문화유적지,Gijang-gun,부산 기장군,35.2446,129.223,153
664,장안사대웅전,부산 기장군 장안로 482-0,역사관광지,문화유적지,Gijang-gun,부산 기장군 장안로 482,35.3706495,129.2157318,153
665,월명사,부산 기장군 참샘길 124-0,역사관광지,절,Gijang-gun,부산 기장군,35.2446,129.223,153
666,국립부산어린이과학관,부산 기장군 동부산관광6로 59-0,문화시설,과학관,Gijang-gun,부산 기장군 동부산관광6로 59-0,35.1992151,129.2112373,153
667,백운암,부산 기장군 임곡1길 114-0,역사관광지,절,Gijang-gun,부산 기장군,35.2446,129.223,153
668,동림사,부산 기장군 기장대로 143-12,역사관광지,절,Gijang-gun,부산 기장군 기장대로 143-12,35.3311736,129.247094,153
669,기장죽성리해송,부산 기장군 두호2길 20-0,역사관광지,문화유적지,Gijang-gun,부산 기장군 두호2길 20-0,35.2402054,129.2457066,153
670,극락암,부산 기장군 철마로 425-0,역사관광지,절,Gijang-gun,부산 기장군 철마로 425,35.27544,129.14606,153
671,수도암,부산 기장군 홍류길 44-0,역사관광지,절,Gijang-gun,부산 기장군,35.2446,129.223,153
672,대천사,부산 기장군 제석골길 89-0,역사관광지,절,Gijang-gun,부산 기장군 제석골길 89-0,35.341885,129.1728927,153
673,방곡사,부산 기장군 구연방곡로 87-0,역사관광지,절,Gijang-gun,부산 기장군 구연방곡로 87,35.3204109,129.1841731,153
674,꿈꾸는공방,부산 기장군 가동2길 4-0,문화시설,문화생활시설기타,Gijang-gun,부산 기장군 가동2길 4-0,35.3274093,129.180622,153
675,원적사,부산 기장군 장곡길 63-34,역사관광지,절,Gijang-gun,부산 기장군 장곡길 63-34,35.30396,129.25007,153
676,초암사,부산 기장군 동서길 79-57,역사관광지,절,Gijang-gun,부산 기장군 동서길 79-57,35.2556772,129.1999393,153
677,휴심사,부산 기장군 일광로 493-47,역사관광지,절,Gijang-gun,부산 기장군 일광로 493-47,35.31492,129.26159,153
678,갤러리후아,부산 기장군 곰내길 242-0,문화시설,문화생활시설기타,Gijang-gun,부산 기장군 곰내길 242,35.30505,129.1716354,153
679,보원사,부산 기장군 양수길 7-11,역사관광지,절,Gijang-gun,부산 기장군 양수길 7-11,35.330241,129.1627714,153
680,도선사,부산 기장군 상곡길 116-0,역사관광지,절,Gijang-gun,부산 기장군,35.2446,129.223,153
681,국립부산어린이과학관건축중(2021년12월개관예정),부산 기장군 동부산관광6로 59-0,문화시설,과학관,Gijang-gun,부산 기장군 동부산관광6로 59-0,35.1992151,129.2112373,153
682,고불사,부산 기장군 고촌로28번길 77-0,역사관광지,절,Gijang-gun,부산 기장군 고촌로28번길 77,35.2400802,129.1709217,153
683,고반재,부산 기장군 석산길 39-5,문화시설,문화생활시설기타,Gijang-gun,부산 기장군 석산길 39-5,35.2078926,129.2098595,153
684,롯데월드매직포레스트건축중(2022년03월개장예정),부산 기장군,휴양관광지,테마파크,Gijang-gun,부산 기장군,35.2446,129.223,153
685,용왕당굿당,부산 기장군 기장해안로 767-0,역사관광지,절,Gijang-gun,부산 기장군 기장해안로 767,35.2248054,129.2297666,153
686,보림사,부산 기장군,역사관광지,절,Gijang-gun,부산 기장군,35.2446,129.223,153
687,석탑사,부산 기장군 용수공단2길 70-14,역사관광지,절,Gijang-gun,부산 기장군,35.2446,129.223,153
688,기장향교,부산 기장군 차성로417번길 35-0,역사관광지,문화유적지,Gijang-gun,부산 기장군 차성로417번길 35-0,35.2567349,129.2159119,153
689,묘관음사,부산 기장군 해맞이로 253-38,역사관광지,절,Gijang-gun,부산 기장군 해맞이로 253-38,35.31354,129.24921,153
690,백두사,부산 기장군 물방길 98-0,역사관광지,절,Gijang-gun,부산 기장군,35.2446,129.223,153
691,대라다목적도서관,부산 기장군 차성서로 86-0,문화시설,문화생활시설기타,Gijang-gun,부산 기장군 차성서로 86-0,35.2473275,129.2108173,153
692,정관어린이도서관,부산 기장군 정관8로 11-0,문화시설,문화생활시설기타,Gijang-gun,부산 기장군 정관8로 11-0,35.3224598,129.1774812,153
693,금산사,부산 기장군 신리길 17-37,역사관광지,절,Gijang-gun,부산 기장군,35.2446,129.223,153
694,지장암,부산 기장군 임기3길 88-24,역사관광지,절,Gijang-gun,부산 기장군,35.2446,129.223,153
695,기장문화원,부산 기장군 청강로74번길 35-6,문화시설,문화원,Gijang-gun,부산 기장군 청강로74번길 35-6,35.235709,129.2215395,153
696,브릭캠퍼스부산,부산 기장군 동부산관광로 8-0,문화시설,화랑/전시관,Gijang-gun,부산 기장군 동부산관광로 8-0,35.1968203,129.2091728,153
697,롯데월드매직포레스트건축중(2022년02월25일개장예정),부산 기장군,휴양관광지,테마파크,Gijang-gun,부산 기장군,35.2446,129.223,153
698,박태준기념관,부산 기장군 임랑해안길 1-0,문화시설,박물관/기념관,Gijang-gun,부산 기장군 임랑해안길 1-0,35.3170707,129.2630681,153
699,가마골소극장,부산 기장군 이천6길 2-0,공연/행사,극장,Gijang-gun,부산 기장군 이천6길 2-0,35.2677054,129.2369086,153
700,갤러리예동,부산 기장군 미동길 7-20,문화시설,화랑/전시관,Gijang-gun,부산 기장군 미동길 7-20,35.2871856,129.1702733,153
701,내리새라도서관,부산 기장군 기장대로 51-0,문화시설,문화생활시설기타,Gijang-gun,부산 기장군 기장대로 51-0,35.3311736,129.247094,153
702,아난티워터하우스,부산 기장군 기장해안로 268-32,휴양관광지,온천,Gijang-gun,부산 기장군 기장해안로 268-32,35.2248054,129.2297666,153
703,롯데월드어드벤처부산 건축중(2022년03월31일개장예정),부산 기장군,휴양관광지,테마파크,Gijang-gun,부산 기장군,35.2446,129.223,153
704,카스인부산,부산 기장군 차성서로 158-12,휴양관광지,수족관,Gijang-gun,부산 기장군 차성서로 158-12,35.2473275,129.2108173,153
705,척판암,부산 기장군 장안로 490-156,역사관광지,절,Gijang-gun,부산 기장군 장안로 490,35.3706495,129.2157318,153
706,정암사,부산 기장군 곰내길 379-6,역사관광지,절,Gijang-gun,부산 기장군 곰내길 379-6,35.30505,129.1716354,153
707,봉림사,부산 기장군 부명1길 20-0,역사관광지,절,Gijang-gun,부산 기장군 부명1길 20-0,35.3623494,129.1460772,153
708,안데르센동화마을,부산 기장군,휴양관광지,놀거리기타,Gijang-gun,부산 기장군,35.2446,129.223,153
709,오랑대,부산 기장군,역사관광지,문화유적지,Gijang-gun,부산 기장군,35.2446,129.223,153
710,진언불교,부산 해운대구 운봉길186번길 46-0,역사관광지,절,Haeundae-gu,부산 해운대구,35.1629,129.1638,159
711,시네마테크부산,부산 해운대구 수영강변대로 120-0,공연/행사,극장,Haeundae-gu,부산 해운대구 수영강변대로 120,35.1712188,129.1266587,159
712,관음사,부산 해운대구 아랫반송로50번길 75-11,역사관광지,절,Haeundae-gu,부산 해운대구 아랫반송로50번길 75-11,35.2221598,129.1502644,159
713,데이트갤러리,부산 해운대구 해운대해변로298번길 5-0,문화시설,화랑/전시관,Haeundae-gu,부산 해운대구 해운대해변로298번길 5-0,35.160775,129.1647455,159
714,최장호갤러리,부산 해운대구 좌동순환로 443-0,문화시설,화랑/전시관,Haeundae-gu,부산 해운대구 좌동순환로 443,35.1619659,129.1712659,159
715,장산불교용품점,부산 해운대구 좌동순환로446번길 12-0,역사관광지,절,Haeundae-gu,부산 해운대구 좌동순환로446번길 12-0,35.1622582,129.1736047,159
716,미술관아트숍,부산 해운대구 APEC로 58-0,문화시설,미술관,Haeundae-gu,부산 해운대구 APEC로 58-0,35.1670333,129.1357275,159
717,부산스마트시티전시관,부산 해운대구 센텀동로 41-0,문화시설,화랑/전시관,Haeundae-gu,부산 해운대구 센텀동로 41-0,35.1737398,129.1303714,159
718,보리선수해운대약사선원,부산 해운대구 좌동로 88-0,역사관광지,절,Haeundae-gu,부산 해운대구 좌동로 88,35.1720684,129.17491434605682,159
719,청풍온천탕,부산 해운대구,휴양관광지,온천,Haeundae-gu,부산 해운대구,35.1629,129.1638,159
720,금천미술관,부산 해운대구 좌동순환로15번길 23-36,문화시설,화랑/전시관,Haeundae-gu,부산 해운대구 좌동순환로15번길 23-36,35.1672548,129.1649183,159
721,퀸즈아트갤러리,부산 해운대구 해운대로 632-0,문화시설,화랑/전시관,Haeundae-gu,부산 해운대구 해운대로 632,35.1887346,129.203893,159
722,반여4동새마을문고,부산 해운대구 삼어로133번길 50-0,문화시설,문화생활시설기타,Haeundae-gu,부산 해운대구 삼어로133번길 50-0,35.2091218,129.1192596,159
723,주천문화원,부산 해운대구 좌동순환로 25-1,문화시설,문화원,Haeundae-gu,부산 해운대구 좌동순환로 25-1,35.1619659,129.1712659,159
724,현엄사,부산 해운대구 운봉길186번길 46-0,역사관광지,절,Haeundae-gu,부산 해운대구,35.1629,129.1638,159
725,도성암,부산 해운대구 송정중앙로21번길 56-0,역사관광지,절,Haeundae-gu,부산 해운대구 송정중앙로21번길 56,35.1839565,129.2036352,159
726,유연선원,부산 해운대구 마린시티3로 1-0,역사관광지,절,Haeundae-gu,부산 해운대구 마린시티3로 1-0,35.1572127,129.1467898,159
727,해운대도서관평생학습마을,부산 해운대구 좌동순환로 118-0,문화시설,문화생활시설기타,Haeundae-gu,부산 해운대구 좌동순환로 118-0,35.1619659,129.1712659,159
728,이음,부산 해운대구 반여로155번나길 50-0,문화시설,화랑/전시관,Haeundae-gu,부산 해운대구 반여로155번나길 50-0,35.2069105,129.1250315,159
729,용국사,부산 해운대구 재반로50번길 31-13,역사관광지,절,Haeundae-gu,부산 해운대구 재반로50번길 31-13,35.1841017,129.127111,159
730,혜림정사,부산 해운대구 달맞이길117번다길 179-0,역사관광지,절,Haeundae-gu,부산 해운대구 달맞이길117번다길 179,35.1597043,129.1808726,159
731,갤러리화인,부산 해운대구 달맞이길117번길 53-0,문화시설,화랑/전시관,Haeundae-gu,부산 해운대구 달맞이길117번길 53,35.1591899,129.175599,159
732,벡스코제3전시장 건축중(2024년완공예정),부산 해운대구,문화시설,전시장,Haeundae-gu,부산 해운대구,35.1629,129.1638,159
733,임권택영화박물관,부산 해운대구 센텀중앙로 55-0,문화시설,박물관/기념관,Haeundae-gu,부산 해운대구 센텀중앙로 55-0,35.1781569,129.1234604,159
734,꿀비공방,부산 해운대구 해운대로 658-4,문화시설,문화생활시설기타,Haeundae-gu,부산 해운대구 해운대로 658-4,35.1887346,129.203893,159
735,심불사,부산 해운대구 해운대로205번길 12-0,역사관광지,절,Haeundae-gu,부산 해운대구,35.1629,129.1638,159
736,숨갤러리,부산 해운대구 달맞이길65번길 161-8,문화시설,전시장,Haeundae-gu,부산 해운대구 달맞이길65번길 161-8,35.1591899,129.175599,159
737,관음정사,부산 해운대구 해운대로469번가길 47-0,역사관광지,절,Haeundae-gu,부산 해운대구 해운대로469번가길 47-0,35.1681011,129.1431417,159
738,용수사,부산 해운대구 해운대로383번가길 117-15,역사관광지,절,Haeundae-gu,부산 해운대구 해운대로383번가길 117-15,35.1726393,129.1437787,159
739,최치원선생비,부산 해운대구 동백로 99-0,문화시설,박물관/기념관,Haeundae-gu,부산 해운대구 동백로 99-0,35.1566781,129.1533051,159
740,운주사,부산 해운대구 운봉길 168-0,역사관광지,절,Haeundae-gu,부산 해운대구 운봉길 168,35.23123,129.14916,159
741,BMW Photo Space,부산 해운대구 해운대해변로 299-0,문화시설,전시장,Haeundae-gu,부산 해운대구 해운대해변로 299,35.1668153,129.1724472,159
742,혜성사,부산 해운대구 반송순환로 160-1,역사관광지,절,Haeundae-gu,부산 해운대구 반송순환로 160-1,35.224356,129.1521843,159
743,푸룻푸룻아일랜드,부산 해운대구 해운대해변로298번길 25-0,문화시설,화랑/전시관,Haeundae-gu,부산 해운대구 해운대해변로298번길 25-0,35.160775,129.1647455,159
744,장약암,부산 해운대구 선수촌로208번가길 78-0,역사관광지,절,Haeundae-gu,부산 해운대구,35.1629,129.1638,159
745,가나부산,부산 해운대구 해운대해변로 292-0,문화시설,화랑/전시관,Haeundae-gu,부산 해운대구 해운대해변로 292,35.1668153,129.1724472,159
746,SEA LIFE 부산아쿠아리움,부산 해운대구 해운대해변로 266-0,휴양관광지,수족관,Haeundae-gu,부산 해운대구 해운대해변로 266-0,35.1668153,129.1724472,159
747,더베이101,부산 해운대구 동백로 52-0,문화시설,문화생활시설기타,Haeundae-gu,부산 해운대구 동백로 52-0,35.1566781,129.1533051,159
748,성불사,부산 해운대구 해운대로383번길 270-0,역사관광지,절,Haeundae-gu,부산 해운대구 해운대로383번길 270,35.18209,129.1368466,159
749,아세안문화원,부산 해운대구 좌동로 162-0,문화시설,문화원,Haeundae-gu,부산 해운대구 좌동로 162,35.17516235,129.18201119999998,159
750,추리문학관,부산 해운대구 달맞이길117번나길 111-0,문화시설,문화생활시설기타,Haeundae-gu,부산 해운대구 달맞이길117번나길 111,35.1638109,129.1846009,159
751,뮤지엄원,부산 해운대구 센텀서로 20-0,문화시설,미술관,Haeundae-gu,부산 해운대구 센텀서로 20-0,35.1723109,129.1274832,159
752,해운대도서관우동분관,부산 해운대구 우동1로 89-0,문화시설,문화생활시설기타,Haeundae-gu,부산 해운대구 우동1로 89-0,35.1664781,129.1579765,159
753,조현화랑,부산 해운대구 달맞이길65번길 171-0,문화시설,화랑/전시관,Haeundae-gu,부산 해운대구 달맞이길65번길 171,35.1591899,129.175599,159
754,메가박스해운대,부산 해운대구 해운대로 813-0,공연/행사,극장,Haeundae-gu,부산 해운대구 해운대로 813,35.1887346,129.203893,159
755,부산영화의거리,부산 해운대구,휴양관광지,놀거리기타,Haeundae-gu,부산 해운대구,35.1629,129.1638,159
756,할매탕,부산 해운대구 중동2로10번길 7-0,휴양관광지,온천,Haeundae-gu,부산 해운대구 중동2로10번길 7-0,35.1634001,129.1658305,159
757,센텀시티스파랜드,부산 해운대구 센텀남대로 35-0,휴양관광지,온천,Haeundae-gu,부산 해운대구,35.1629,129.1638,159
758,수도암,부산 해운대구 해운대로383번가길 117-120,역사관광지,절,Haeundae-gu,부산 해운대구 해운대로383번가길 117-120,35.1726393,129.1437787,159
759,하늘연극장영화의전당,부산 해운대구 수영강변대로 120-0,공연/행사,극장,Haeundae-gu,부산 해운대구 수영강변대로 120,35.1712188,129.1266587,159
760,해월정사,부산 해운대구 청사포로67번길 19-0,역사관광지,절,Haeundae-gu,부산 해운대구 청사포로67번길 19-0,35.1629685,129.1890326,159
761,컨벤션홀BEXCO,부산 해운대구,문화시설,전시장,Haeundae-gu,부산 해운대구,35.1629,129.1638,159
762,벡스코상상체험키즈월드,부산 해운대구 APEC로 30-0,휴양관광지,놀이시설,Haeundae-gu,부산 해운대구 APEC로 30-0,35.1670333,129.1357275,159
763,고은사진미술관,부산 해운대구 해운대로452번길 16-0,문화시설,미술관,Haeundae-gu,부산 해운대구 해운대로452번길 16-0,35.1634149,129.1418761,159
764,해운대로데오거리,부산 해운대구,휴양관광지,놀거리기타,Haeundae-gu,부산 해운대구,35.1629,129.1638,159
765,폭포사,부산 해운대구 장산로 331-112,역사관광지,절,Haeundae-gu,부산 해운대구 장산로 331,35.1729415,129.1467094,159
766,동해사,부산 해운대구 달맞이길117번나길 175-32,역사관광지,절,Haeundae-gu,부산 해운대구 달맞이길117번나길 175-32,35.1638109,129.1846009,159
767,맥화랑,부산 해운대구 달맞이길117번나길 162-0,문화시설,화랑/전시관,Haeundae-gu,부산 해운대구 달맞이길117번나길 162,35.1638109,129.1846009,159
768,해운대동백섬,부산 해운대구,역사관광지,문화유적지,Haeundae-gu,부산 해운대구,35.1629,129.1638,159
769,재송어린이도서관,부산 해운대구 해운대로76번길 35-1,문화시설,문화생활시설기타,Haeundae-gu,부산 해운대구 해운대로76번길 35-1,35.1906205,129.1170921,159
770,부산송정역폐역,부산 해운대구 송정중앙로8번길 60-0,역사관광지,문화유적지,Haeundae-gu,부산 해운대구 송정중앙로8번길 60-0,35.1805257,129.2005815,159
771,해운대인문학도서관,부산 해운대구 반여로 132-0,문화시설,문화생활시설기타,Haeundae-gu,부산 해운대구 반여로 132,35.1935179,129.1178236,159
772,파라다이스호텔온천,부산 해운대구 해운대해변로 296-0,휴양관광지,온천,Haeundae-gu,부산 해운대구 해운대해변로 296,35.1602041,129.1652071,159
773,벡스코제2전시장,부산 해운대구 APEC로 30-0,문화시설,전시장,Haeundae-gu,부산 해운대구 APEC로 30-0,35.1670333,129.1357275,159
774,부산광역시립반송도서관,부산 해운대구 아랫반송로 22-0,문화시설,문화생활시설기타,Haeundae-gu,부산 해운대구 아랫반송로 22-0,35.225546,129.1471313,159
775,영화의전당,부산 해운대구 수영강변대로 120-0,공연/행사,극장,Haeundae-gu,부산 해운대구 수영강변대로 120,35.1712188,129.1266587,159
776,해운대수목원,부산 해운대구,휴양관광지,동식물원,Haeundae-gu,부산 해운대구,35.1629,129.1638,159
777,해운대구문화복합센터,부산 해운대구 센텀중앙로 170-0,문화시설,문화생활시설기타,Haeundae-gu,부산 해운대구 센텀중앙로 170,35.1781569,129.1234604,159
778,부산시립미술관,부산 해운대구 APEC로 58-0,문화시설,미술관,Haeundae-gu,부산 해운대구 APEC로 58-0,35.1670333,129.1357275,159
779,뮤지엄다,부산 해운대구 센텀서로 20-0,문화시설,미술관,Haeundae-gu,부산 해운대구 센텀서로 20-0,35.1723109,129.1274832,159
780,롯데시네마프리미엄해운대,부산 해운대구 해운대로 802-0,공연/행사,극장,Haeundae-gu,부산 해운대구 해운대로 802,35.1887346,129.203893,159
781,해리단길,부산 해운대구,휴양관광지,놀거리기타,Haeundae-gu,부산 해운대구,35.1629,129.1638,159
782,CGV해운대,부산 해운대구 해운대로 620-0,공연/행사,극장,Haeundae-gu,부산 해운대구 해운대로 620,35.1887346,129.203893,159
783,해운대블루라인파크,부산 해운대구,휴양관광지,테마파크,Haeundae-gu,부산 해운대구,35.1629,129.1638,159
784,해운대도서관본관,부산 해운대구 양운로 183-0,문화시설,문화생활시설기타,Haeundae-gu,부산 해운대구 양운로 183,35.1732877,129.1735977,159
785,반여도서관,부산 해운대구 재반로282번길 38-0,문화시설,문화생활시설기타,Haeundae-gu,부산 해운대구 재반로282번길 38-0,35.2026562,129.1356824,159
786,키자니아부산점,부산 해운대구 센텀4로 15-0,휴양관광지,놀이시설,Haeundae-gu,부산 해운대구 센텀4로 15-0,35.1711576,129.1324827,159
787,해운정사,부산 해운대구 우동2로 40-6,역사관광지,절,Haeundae-gu,부산 해운대구 우동2로 40-6,35.1722231,129.1568418,159
788,CGV센텀시티,부산 해운대구 센텀남대로 35-0,공연/행사,극장,Haeundae-gu,부산 해운대구,35.1629,129.1638,159
789,해운대온천센터,부산 해운대구 중동2로 16-0,휴양관광지,온천,Haeundae-gu,부산 해운대구 중동2로 16-0,35.1636445,129.164833,159
790,벡스코오디토리움,부산 해운대구 APEC로 55-0,문화시설,전시장,Haeundae-gu,부산 해운대구 APEC로 55-0,35.1670333,129.1357275,159
791,롯데시네마센텀시티,부산 해운대구 센텀남대로 59-0,공연/행사,극장,Haeundae-gu,부산 해운대구,35.1629,129.1638,159
792,소향씨어터신한카드홀,부산 해운대구 센텀중앙로 55-0,공연/행사,공연장,Haeundae-gu,부산 해운대구 센텀중앙로 55-0,35.1781569,129.1234604,159
793,BEXCO,부산 해운대구 APEC로 55-0,문화시설,전시장,Haeundae-gu,부산 해운대구 APEC로 55-0,35.1670333,129.1357275,159
794,마린갤러리,부산 해운대구 달맞이길65번길 56-0,문화시설,화랑/전시관,Haeundae-gu,부산 해운대구 달맞이길65번길 56,35.1591899,129.175599,159
795,해변도서관,부산 해운대구 해운대해변로 264-0,문화시설,문화생활시설기타,Haeundae-gu,부산 해운대구 해운대해변로 264,35.1668153,129.1724472,159
796,느티나무도서관,부산 해운대구 윗반송로 57-0,문화시설,문화생활시설기타,Haeundae-gu,부산 해운대구 윗반송로 57-0,35.2300426,129.1540137,159
797,대광명사,부산 해운대구 좌동순환로 473-0,역사관광지,절,Haeundae-gu,부산 해운대구 좌동순환로 473,35.1619659,129.1712659,159
798,해운대청년채움공간,부산 해운대구 센텀동로 200-0,문화시설,문화생활시설기타,Haeundae-gu,부산 해운대구 센텀동로 200,35.1737398,129.1303714,159
799,수아트홀,부산 해운대구 중동1로19번길 14-0,공연/행사,공연장,Haeundae-gu,부산 해운대구 중동1로19번길 14-0,35.164277,129.1630386,159
800,옥천사,부산 해운대구 재반로64번길 62-0,역사관광지,절,Haeundae-gu,부산 해운대구 재반로64번길 62-0,35.1875637,129.1286352,159
801,원오사,부산 해운대구 윗반송로 124-5,역사관광지,절,Haeundae-gu,부산 해운대구 윗반송로 124-5,35.2300426,129.1540137,159
802,갤러리조이,부산 해운대구 달맞이길65번길 56-0,문화시설,화랑/전시관,Haeundae-gu,부산 해운대구 달맞이길65번길 56,35.1591899,129.175599,159
803,월석아트홀,부산 해운대구 센텀서로 20-0,문화시설,화랑/전시관,Haeundae-gu,부산 해운대구 센텀서로 20-0,35.1723109,129.1274832,159
804,약수암,부산 해운대구 해운대로383번가길 117-55,역사관광지,절,Haeundae-gu,부산 해운대구 해운대로383번가길 117-55,35.1726393,129.1437787,159
805,해림사,부산 해운대구 반여로 68-38,역사관광지,절,Haeundae-gu,부산 해운대구 반여로 68-38,35.1935179,129.1178236,159
806,적조암,부산 해운대구,역사관광지,절,Haeundae-gu,부산 해운대구,35.1629,129.1638,159
807,안심정사부산달맞이법당,부산 해운대구 달맞이길117번다길 149-0,역사관광지,절,Haeundae-gu,부산 해운대구 달맞이길117번다길 149,35.1597043,129.1808726,159
808,광안대로전시관,부산 해운대구 수영강변대로 203-0,문화시설,화랑/전시관,Haeundae-gu,부산 해운대구 수영강변대로 203-0,35.1629548,129.1336233,159
809,무주사,부산 해운대구 반송순환로184번길 16-0,역사관광지,절,Haeundae-gu,부산 해운대구,35.1629,129.1638,159
810,반송삼절사,부산 해운대구 신반송로182번길 24-0,역사관광지,문화유적지,Haeundae-gu,부산 해운대구 신반송로182번길 24-0,35.2300251,129.1608487,159
811,부산시립어린이미술관,부산 해운대구 APEC로 58-0,문화시설,미술관,Haeundae-gu,부산 해운대구 APEC로 58-0,35.1670333,129.1357275,159
812,대운사,부산 해운대구 송정광어골로 62-0,역사관광지,절,Haeundae-gu,부산 해운대구 송정광어골로 62-0,35.1741673,129.1963753,159
813,해운대문화원,부산 해운대구 센텀중앙로 170-0,문화시설,문화원,Haeundae-gu,부산 해운대구 센텀중앙로 170,35.1781569,129.1234604,159
814,갤러리하이,부산 해운대구 재반로27번길 36-13,문화시설,화랑/전시관,Haeundae-gu,부산 해운대구 재반로27번길 36-13,35.1823246,129.1253136,159
815,정맹룡도예공방,부산 해운대구 좌동로53번길 17-0,문화시설,문화생활시설기타,Haeundae-gu,부산 해운대구 좌동로53번길 17-0,35.1711692,129.1723905,159
816,고려온천탕,부산 해운대구 중동1로19번길 24-0,휴양관광지,온천,Haeundae-gu,부산 해운대구 중동1로19번길 24-0,35.164277,129.1630386,159
817,혜연사,부산 해운대구 달맞이길 511-0,역사관광지,절,Haeundae-gu,부산 해운대구 달맞이길 511,35.1610571,129.1707504,159
818,레디움아트센터,부산 해운대구 해운대해변로298번길 24-0,문화시설,화랑/전시관,Haeundae-gu,부산 해운대구 해운대해변로298번길 24-0,35.160775,129.1647455,159
819,화엄법계사,부산 해운대구 재반로12번길 28-0,역사관광지,절,Haeundae-gu,부산 해운대구 재반로12번길 28-0,35.1799776,129.1271895,159
820,리빈갤러리,부산 해운대구 좌동로63번길 23-0,문화시설,화랑/전시관,Haeundae-gu,부산 해운대구 좌동로63번길 23-0,35.172651,129.1716699,159
821,작은인문학도서관,부산 해운대구 센텀중앙로 170-0,문화시설,문화생활시설기타,Haeundae-gu,부산 해운대구 센텀중앙로 170,35.1781569,129.1234604,159
822,석대암,부산 해운대구 반송로623번길 56-1,역사관광지,절,Haeundae-gu,부산 해운대구,35.1629,129.1638,159
823,개운사,부산 해운대구 반송로877번길 104-0,역사관광지,절,Haeundae-gu,부산 해운대구 반송로877번길 104-0,35.2346303,129.1504877,159
824,반야선원,부산 해운대구 세실로 87-0,역사관광지,절,Haeundae-gu,부산 해운대구 세실로 87,35.1776,129.17645,159
825,용수사,부산 해운대구 아랫반송로70번길 72-0,역사관광지,절,Haeundae-gu,부산 해운대구 아랫반송로70번길 72-0,35.2204311,129.1511199,159
826,한국문화센터,부산 해운대구 양운로 98-0,문화시설,문화생활시설기타,Haeundae-gu,부산 해운대구 양운로 98-0,35.1732877,129.1735977,159
827,두타사,부산 해운대구 달맞이길 495-0,역사관광지,절,Haeundae-gu,부산 해운대구 달맞이길 495,35.1610571,129.1707504,159
828,길상사,부산 해운대구 해운대로469번길 180-0,역사관광지,절,Haeundae-gu,부산 해운대구 해운대로469번길 180,35.1697193,129.1400116,159
829,석태암,부산 해운대구 장산로 331-79,역사관광지,절,Haeundae-gu,부산 해운대구 장산로 331,35.1729415,129.1467094,159
830,지륜심인당,부산 해운대구 좌동순환로468번가길 12-0,역사관광지,절,Haeundae-gu,부산 해운대구 좌동순환로468번가길 12-0,35.1632686,129.1738554,159
831,카린,부산 해운대구 달맞이길65번길 154-0,문화시설,화랑/전시관,Haeundae-gu,부산 해운대구 달맞이길65번길 154-0,35.1591899,129.175599,159
832,반여1동문화센터,부산 해운대구 선수촌로 99-7,문화시설,문화생활시설기타,Haeundae-gu,부산 해운대구 선수촌로 99-7,35.1960748,129.1185137,159
833,대한불교조계종원각사,부산 해운대구 장산로 427-291,역사관광지,절,Haeundae-gu,부산 해운대구 장산로 427,35.1817359,129.1768241,159
834,소울아트스페이스,부산 해운대구 해운대해변로 30-0,문화시설,화랑/전시관,Haeundae-gu,부산 해운대구 해운대해변로 30-0,35.1668153,129.1724472,159
835,더브릿지,부산 해운대구 해운대해변로209번가길 29-1,문화시설,문화생활시설기타,Haeundae-gu,부산 해운대구 해운대해변로209번가길 29-1,35.1594976,129.1561324,159
836,재송2동어르신일자리문화센터,부산 해운대구 재반로103번길 41-0,문화시설,문화생활시설기타,Haeundae-gu,부산 해운대구 재반로103번길 41-0,35.1879792,129.1247042,159
837,해운대온천,부산 해운대구 중동1로 46-0,휴양관광지,온천,Haeundae-gu,부산 해운대구 중동1로 46-0,35.161404,129.163454,159
838,뮤지엄오브일루전,부산 해운대구 수영강변대로 120-0,문화시설,미술관,Haeundae-gu,부산 해운대구 수영강변대로 120,35.1712188,129.1266587,159
839,KNN시어터,부산 해운대구 센텀서로 30-0,공연/행사,공연장,Haeundae-gu,부산 해운대구 센텀서로 30-0,35.1723109,129.1274832,159
840,해운대문화놀이센터,부산 해운대구 반송순환로 147-0,문화시설,문화생활시설기타,Haeundae-gu,부산 해운대구 반송순환로 147,35.224356,129.1521843,159
841,아트소향,부산 해운대구 센텀중앙로 55-0,문화시설,화랑/전시관,Haeundae-gu,부산 해운대구 센텀중앙로 55-0,35.1781569,129.1234604,159
842,백운사,부산 해운대구 운봉길 315-0,역사관광지,절,Haeundae-gu,부산 해운대구 운봉길 315,35.23123,129.14916,159
843,보경사,부산 해운대구 반송순환로72번길 12-5,역사관광지,절,Haeundae-gu,부산 해운대구 반송순환로72번길 12-5,35.219562,129.1505205,159
844,미륵암,부산 해운대구 좌동순환로468번가길 49-0,역사관광지,절,Haeundae-gu,부산 해운대구 좌동순환로468번가길 49-0,35.1632686,129.1738554,159
845,금수암,부산 해운대구 재반로30번가길 6-0,역사관광지,절,Haeundae-gu,부산 해운대구 재반로30번가길 6-0,35.185706,129.1290011,159
846,쿠무다,부산 해운대구 송정광어골로 41-0,문화시설,문화생활시설기타,Haeundae-gu,부산 해운대구 송정광어골로 41-0,35.1741673,129.1963753,159
847,해영사,부산 해운대구 좌동순환로 22-0,역사관광지,절,Haeundae-gu,부산 해운대구 좌동순환로 22-0,35.1619659,129.1712659,159
848,해운대석각,부산 해운대구,역사관광지,문화유적지,Haeundae-gu,부산 해운대구,35.1629,129.1638,159
849,해월사,부산 해운대구 해운대로383번길 191-0,역사관광지,절,Haeundae-gu,부산 해운대구 해운대로383번길 191-0,35.18209,129.1368466,159
850,도자공방가원,부산 해운대구 달맞이길117번가길 30-0,문화시설,문화생활시설기타,Haeundae-gu,부산 해운대구 달맞이길117번가길 30-0,35.1581138,129.1788868,159
851,Agate,부산 해운대구 좌동순환로 118-0,문화시설,문화생활시설기타,Haeundae-gu,부산 해운대구 좌동순환로 118-0,35.1619659,129.1712659,159
852,라이크휩크림,부산 해운대구 APEC로 17-0,문화시설,문화생활시설기타,Haeundae-gu,부산 해운대구 APEC로 17-0,35.1670333,129.1357275,159
853,갤러리아트숲,부산 해운대구 청사포로 85-0,문화시설,화랑/전시관,Haeundae-gu,부산 해운대구 청사포로 85,35.1618678,129.1878681,159
854,혜광사,부산 해운대구 반송로 559-2,역사관광지,절,Haeundae-gu,부산 해운대구 반송로 559-2,35.2359771,129.1680206,159
855,부처님마을,부산 해운대구 좌동로 152-0,역사관광지,절,Haeundae-gu,부산 해운대구 좌동로 152,35.17490405,129.18115906731094,159
856,부산프랑스문화원아트스페이스,부산 해운대구 해운대로452번길 16-0,문화시설,전시장,Haeundae-gu,부산 해운대구 해운대로452번길 16-0,35.1634149,129.1418761,159
857,반여화훼단지,부산 해운대구 선수촌로 290-0,휴양관광지,동식물원,Haeundae-gu,부산 해운대구 선수촌로 290,35.1960748,129.1185137,159
858,솔밭예술마을,부산 해운대구 중동1로17번길 15-14,문화시설,문화생활시설기타,Haeundae-gu,부산 해운대구 중동1로17번길 15-14,35.1639336,129.1624397,159
859,청혜원,부산 해운대구 반여로 172-0,역사관광지,절,Haeundae-gu,부산 해운대구 반여로 172,35.1935179,129.1178236,159
860,반여3동새마을문고,부산 해운대구 재반로256번길 29-70,문화시설,문화생활시설기타,Haeundae-gu,부산 해운대구 재반로256번길 29-70,35.2010819,129.133483,159
861,이듬갤러리,부산 해운대구 달맞이길117번길 53-0,문화시설,화랑/전시관,Haeundae-gu,부산 해운대구 달맞이길117번길 53,35.1591899,129.175599,159
862,장천사,부산 해운대구,역사관광지,절,Haeundae-gu,부산 해운대구,35.1629,129.1638,159
863,보리선수송정약사선원,부산 해운대구 송정강변로 3-0,역사관광지,절,Haeundae-gu,부산 해운대구 송정강변로 3-0,35.1862847,129.2051189,159
864,경덕염불원,부산 해운대구 우동2로30번길 33-0,역사관광지,절,Haeundae-gu,부산 해운대구 우동2로30번길 33-0,35.1681522,129.1612486,159
865,예현기타아카데미,부산 해운대구 좌동로 152-0,문화시설,문화생활시설기타,Haeundae-gu,부산 해운대구 좌동로 152,35.17490405,129.18115906731094,159
866,법륜사,부산 해운대구 우동2로60번길 15-0,역사관광지,절,Haeundae-gu,부산 해운대구 우동2로60번길 15-0,35.1691216,129.1571675,159
867,추리문학도서관,부산 해운대구 달맞이길117번나길 111-0,문화시설,문화생활시설기타,Haeundae-gu,부산 해운대구 달맞이길117번나길 111,35.1638109,129.1846009,159
868,아뜰리에BB,부산 해운대구 우동1로20번길 5-0,문화시설,문화생활시설기타,Haeundae-gu,부산 해운대구 우동1로20번길 5-0,35.1644117,129.1577913,159
869,민주공원민주항쟁기념관,부산 중구 민주공원길 19-0,문화시설,박물관/기념관,Jung-gu,부산 중구 민주공원길 19-0,35.1101363,129.0275016,57
870,보수동책방골목문화관,부산 중구 대청로 61-2,문화시설,문화원,Jung-gu,부산 중구 대청로 61-2,35.1035461,129.0275611,57
871,40계단문화관,부산 중구 동광길 49-0,문화시설,문화원,Jung-gu,부산 중구 동광길 49-0,35.1088291,129.0360649,57
872,고심정사,부산 중구 대청로135번길 20-0,역사관광지,절,Jung-gu,부산 중구 대청로135번길 20-0,35.1042289,129.03481,57
873,백산기념관,부산 중구 백산길 11-0,문화시설,박물관/기념관,Jung-gu,부산 중구 백산길 11-0,35.1017385,129.0339661,57
874,CGV남포 휴점,부산 중구 비프광장로 18-0,공연/행사,극장,Jung-gu,부산 중구 비프광장로 18-0,35.0979462,129.0293044,57
875,조은극장1관,부산 중구 구덕로34번길 4-0,공연/행사,공연장,Jung-gu,부산 중구 구덕로34번길 4-0,35.0985169,129.0322172,57
876,부산BIFF거리,부산 중구,휴양관광지,놀거리기타,Jung-gu,부산 중구,35.106501,129.0325814,57
877,롯데시네마대영,부산 중구 비프광장로 37-0,공연/행사,극장,Jung-gu,부산 중구 비프광장로 37-0,35.0979462,129.0293044,57
878,메가박스부산극장본관,부산 중구 비프광장로 36-0,공연/행사,극장,Jung-gu,부산 중구 비프광장로 36-0,35.0979462,129.0293044,57
879,부산영화체험박물관,부산 중구 대청로126번길 12-0,문화시설,박물관/기념관,Jung-gu,부산 중구 대청로126번길 12-0,35.1003576,129.0344011,57
880,부산광역시립중앙도서관,부산 중구 망양로193번길 146-0,문화시설,문화생활시설기타,Jung-gu,부산 중구 망양로193번길 146,35.1125976,129.0274822,57
881,BIFF광장,부산 중구,휴양관광지,놀거리기타,Jung-gu,부산 중구,35.106501,129.0325814,57
882,롯데시네마광복,부산 중구 중앙대로 2-0,공연/행사,극장,Jung-gu,부산 중구 중앙대로 2-0,35.1077398,129.0360465,57
883,가톨릭센터,부산 중구 중구로 71-0,문화시설,문화생활시설기타,Jung-gu,부산 중구 중구로 71-0,35.1104838,129.0350917,57
884,트릭아이뮤지엄부산,부산 중구 대청로126번길 12-0,문화시설,미술관,Jung-gu,부산 중구 대청로126번길 12-0,35.1003576,129.0344011,57
885,대각사,부산 중구 광복중앙로 19-0,역사관광지,절,Jung-gu,부산 중구 광복중앙로 19-0,35.1006059,129.0313464,57
886,40계단거리,부산 중구,휴양관광지,놀거리기타,Jung-gu,부산 중구,35.106501,129.0325814,57
887,한성1918부산생활문화센터,부산 중구 백산길 13-0,문화시설,문화생활시설기타,Jung-gu,부산 중구 백산길 13-0,35.1017385,129.0339661,57
888,조은극장2관,부산 중구 구덕로34번길 4-0,공연/행사,공연장,Jung-gu,부산 중구 구덕로34번길 4-0,35.0985169,129.0322172,57
889,색채마을,부산 중구 망양로 327-1,휴양관광지,놀거리기타,Jung-gu,부산 중구 망양로 327-1,35.1066615,129.0266306,57
890,아카데미극장,부산 중구 비프광장로 12-0,공연/행사,극장,Jung-gu,부산 중구 비프광장로 12-0,35.0979462,129.0293044,57
891,덕성사,부산 중구 망양로 409-0,역사관광지,절,Jung-gu,부산 중구 망양로 409,35.1066615,129.0266306,57
892,보은사,부산 중구 망양로 413-3,역사관광지,절,Jung-gu,부산 중구 망양로 413-3,35.1066615,129.0266306,57
893,용두산미타선원,부산 중구 광복로77번길 5-0,역사관광지,절,Jung-gu,부산 중구 광복로77번길 5-0,35.0989334,129.0335395,57
894,광원수족관,부산 중구 구덕로 28-0,휴양관광지,수족관,Jung-gu,부산 중구 구덕로 28-0,35.0978083,129.0349077,57
895,부산세관박물관,부산 중구 충장대로 20-0,문화시설,박물관/기념관,Jung-gu,부산 중구 충장대로 20-0,35.1052366,129.0375082,57
896,모퉁이극장,부산 중구 광복중앙로 13-0,공연/행사,극장,Jung-gu,부산 중구 광복중앙로 13-0,35.1006059,129.0313464,57
897,국제시장609글로벌복합문화공간,부산 중구 중구로 28-0,문화시설,문화생활시설기타,Jung-gu,부산 중구 중구로 28-0,35.1104838,129.0350917,57
898,천룡사,부산 중구 보동길 14-0,역사관광지,절,Jung-gu,부산 중구 보동길 14-0,35.1079011,129.0240749,57
899,부산광역시중구문화원,부산 중구 복병산길 20-0,문화시설,문화원,Jung-gu,부산 중구 복병산길 20-0,35.1032147,129.0318689,57
900,핸드프린팅거리,부산 중구 비프광장로 40-0,휴양관광지,놀거리기타,Jung-gu,부산 중구 비프광장로 40-0,35.0979462,129.0293044,57
901,한국문화센터남포지부,부산 중구 구덕로22번길 3-0,문화시설,문화생활시설기타,Jung-gu,부산 중구 구덕로22번길 3-0,35.0981281,129.0333886,57
902,부산극장,부산 중구 비프광장로 36-0,공연/행사,극장,Jung-gu,부산 중구 비프광장로 36-0,35.0979462,129.0293044,57
903,금수현의음악살롱,부산 중구 망양로355번길 22-0,문화시설,문화생활시설기타,Jung-gu,부산 중구 망양로355번길 22-0,35.108645,129.0303501,57
904,한광미술관,부산 중구 중앙대로 130-0,문화시설,미술관,Jung-gu,부산 중구 중앙대로 130,35.1012155,129.0357402,57
905,대한해협전승비,부산 중구,역사관광지,기념비,Jung-gu,부산 중구,35.106501,129.0325814,57
906,남포동새마을문고,부산 중구 구덕로 26-1,문화시설,문화생활시설기타,Jung-gu,부산 중구 구덕로 26-1,35.0978083,129.0349077,57
907,쿵스게임랜드부산남포점,부산 중구 광복로39번길 6-0,휴양관광지,놀이시설,Jung-gu,부산 중구 광복로39번길 6-0,35.100814,129.0291551,57
908,민주공원공연장,부산 중구 민주공원길 19-0,공연/행사,공연장,Jung-gu,부산 중구 민주공원길 19-0,35.1101363,129.0275016,57
909,미타선원,부산 중구 광복로77번길 5-0,역사관광지,절,Jung-gu,부산 중구 광복로77번길 5-0,35.0989334,129.0335395,57
910,구박갤러리,부산 중구 보수대로 110-0,문화시설,화랑/전시관,Jung-gu,부산 중구 보수대로 110,35.1054172,129.0217009,57
911,오픈스페이스배,부산 중구 동광길 43-0,문화시설,미술관,Jung-gu,부산 중구 동광길 43-0,35.1088291,129.0360649,57
912,추억보물섬,부산 중구 중구로23번길 9-0,문화시설,전시장,Jung-gu,부산 중구 중구로23번길 9-0,35.0999037,129.0260368,57
913,글마루작은도서관,부산 중구 동영로 87-1,문화시설,문화생활시설기타,Jung-gu,부산 중구 동영로 87-1,35.1124791,129.0339804,57
914,BNK부산은행아트시네마,부산 중구 광복중앙로 13-0,공연/행사,극장,Jung-gu,부산 중구 광복중앙로 13-0,35.1006059,129.0313464,57
915,BS부산은행갤러리,부산 중구 광복중앙로 13-0,문화시설,화랑/전시관,Jung-gu,부산 중구 광복중앙로 13-0,35.1006059,129.0313464,57
916,보수동책방골목어린이도서관,부산 중구 대청로 57-16,문화시설,문화생활시설기타,Jung-gu,부산 중구 대청로 57-16,35.1035461,129.0275611,57
917,메가박스부산극장신관,부산 중구 비프광장로 28-0,공연/행사,극장,Jung-gu,부산 중구 비프광장로 28-0,35.0979462,129.0293044,57
918,청년작당소,부산 중구 광복중앙로 13-0,문화시설,문화생활시설기타,Jung-gu,부산 중구 광복중앙로 13-0,35.1006059,129.0313464,57
919,용해선원,부산 중구 대청북길17번길 25-4,역사관광지,절,Jung-gu,부산 중구 대청북길17번길 25-4,35.1070329,129.0303581,57
920,박기종기념관,부산 중구 망양로 362-0,문화시설,박물관/기념관,Jung-gu,부산 중구 망양로 362,35.1066615,129.0266306,57
921,정수사,부산 중구 광복로97번길 11-0,역사관광지,절,Jung-gu,부산 중구 광복로97번길 11-0,35.1001709,129.0347244,57
922,젊음의거리,부산 중구,휴양관광지,놀거리기타,Jung-gu,부산 중구,35.106501,129.0325814,57
923,성화사,부산 중구 흑교로78번길 17-0,역사관광지,절,Jung-gu,부산 중구 흑교로78번길 17-0,35.1064368,129.0238857,57
924,부산근현대역사박물관건축중(2022년완공예정),부산 중구 대청로 112-0,문화시설,박물관/기념관,Jung-gu,부산 중구 대청로 112,35.1035461,129.0275611,57
925,보문당화랑,부산 중구 대청로 132-0,문화시설,화랑/전시관,Jung-gu,부산 중구 대청로 132,35.1035461,129.0275611,57
926,화성사,부산 남구 용주로 11-0,역사관광지,절,Nam-gu,부산 남구 용주로 11-0,35.1126168,129.115097,85
927,드림씨어터,부산 남구 전포대로 133-0,공연/행사,공연장,Nam-gu,부산 남구 전포대로 133,35.1482885,129.0654374,85
928,견성암,부산 남구 용호로231번길 128-47,역사관광지,절,Nam-gu,부산 남구 용호로231번길 128-47,35.1130853,129.1157574,85
929,향림사,부산 남구 솔밭로 46-0,역사관광지,절,Nam-gu,부산 남구 솔밭로 46-0,35.12923,129.07272,85
930,연대사,부산 남구 진남로232번길 13-0,역사관광지,절,Nam-gu,부산 남구 진남로232번길 13-0,35.1460102,129.0771969,85
931,유치찬란키즈클래스,부산 남구 진남로 141-5,휴양관광지,놀이시설,Nam-gu,부산 남구 진남로 141-5,35.1368869,129.0909558,85
932,산성교회문고,부산 남구 유엔로137번길 9-0,문화시설,문화생활시설기타,Nam-gu,부산 남구 유엔로137번길 9-0,35.1307614,129.091299,85
933,보은정사,부산 남구 홍곡로 269-0,역사관광지,절,Nam-gu,부산 남구 홍곡로 269,35.1169842,129.0863616,85
934,대연사,부산 남구 못골번영로 105-1,역사관광지,절,Nam-gu,부산 남구 못골번영로 105-1,35.1359231,129.0891106,85
935,올맘도서관,부산 남구 수영로 345-0,문화시설,문화생활시설기타,Nam-gu,부산 남구 수영로 345,35.1399716,129.1038716,85
936,히어로보드게임카페경성대점,부산 남구 용소로8번길 10-0,휴양관광지,놀이시설,Nam-gu,부산 남구 용소로8번길 10-0,35.1356883,129.0983177,85
937,불심원,부산 남구 수영로267번길 49-0,역사관광지,절,Nam-gu,부산 남구 수영로267번길 49-0,35.1368434,129.0953131,85
938,대연정사,부산 남구 진남로69번길 8-0,역사관광지,절,Nam-gu,부산 남구 진남로69번길 8-0,35.1371817,129.0876595,85
939,불용사,부산 남구 동명로117번길 35-11,역사관광지,절,Nam-gu,부산 남구 동명로117번길 35-11,35.1231227,129.1100433,85
940,부산점자도서관남구분관,부산 남구 수영로267번길 61-0,문화시설,문화생활시설기타,Nam-gu,부산 남구 수영로267번길 61-0,35.1368434,129.0953131,85
941,일광불원,부산 남구 분포로 66-30,역사관광지,절,Nam-gu,부산 남구 분포로 66-30,35.1279355,129.114704,85
942,브니엘학습관문고,부산 남구 천제등로28번길 50-0,문화시설,문화생활시설기타,Nam-gu,부산 남구 천제등로28번길 50-0,35.1320262,129.0872286,85
943,공간소극장,부산 남구 수영로 170-0,공연/행사,공연장,Nam-gu,부산 남구 수영로 170,35.1387324,129.1028871,85
944,경성대학교콘서트홀,부산 남구 수영로 309-0,공연/행사,공연장,Nam-gu,부산 남구 수영로 309,35.1387324,129.1028871,85
945,들꽃이야기어린이도서관,부산 남구 수영로219번길 33-0,문화시설,문화생활시설기타,Nam-gu,부산 남구 수영로219번길 33-0,35.1366945,129.0904518,85
946,해성아트센터,부산 남구 분포로 101-0,문화시설,미술관,Nam-gu,부산 남구 분포로 101,35.1279355,129.114704,85
947,옥천암,부산 남구 황령대로90번길 93-53,역사관광지,절,Nam-gu,부산 남구 황령대로90번길 93-53,35.1465675,129.0691467,85
948,부산예술관,부산 남구 유엔평화로76번길 26-0,문화시설,문화생활시설기타,Nam-gu,부산 남구 유엔평화로76번길 26-0,35.12521,129.09449,85
949,능가사,부산 남구 동제당로 148-0,역사관광지,절,Nam-gu,부산 남구 동제당로 148,35.1313031,129.0769609,85
950,러시아월드도서관,부산 남구 황령대로492번길 8-0,문화시설,문화생활시설기타,Nam-gu,부산 남구 황령대로492번길 8-0,35.1372706,129.1054044,85
951,반야정사,부산 남구 수영로39번가길 17-5,역사관광지,절,Nam-gu,부산 남구 수영로39번가길 17-5,35.1389671,129.0746543,85
952,금정사,부산 남구 지게골로108번길 13-1,역사관광지,절,Nam-gu,부산 남구,35.1361,129.0843999,85
953,신양기념관,부산 남구 수영로196번길 80-0,문화시설,박물관/기념관,Nam-gu,부산 남구 수영로196번길 80-0,35.1339146,129.0880837,85
954,동명불원홍승스님,부산 남구 신선로 428-0,역사관광지,절,Nam-gu,부산 남구 신선로 428,35.1219955,129.10172478230282,85
955,법륜사,부산 남구 유엔평화로47번길 27-0,역사관광지,절,Nam-gu,부산 남구 유엔평화로47번길 27-0,35.1307332,129.0964018,85
956,샘터꿈의도서관,부산 남구 조각공원로27번길 12-0,문화시설,문화생활시설기타,Nam-gu,부산 남구 조각공원로27번길 12-0,35.1294227,129.0998889,85
957,감만동미술관,부산 남구 홍곡로57번길 19-0,문화시설,미술관,Nam-gu,부산 남구 홍곡로57번길 19-0,35.1180968,129.0852333,85
958,LSM Ceramic Studio,부산 남구 용소로34번길 6-1,문화시설,문화생활시설기타,Nam-gu,부산 남구 용소로34번길 6-1,35.1342658,129.0992106,85
959,관음정사,부산 남구 고동골로72번길 16-2,역사관광지,절,Nam-gu,부산 남구 고동골로72번길 16-2,35.1434527,129.0730426,85
960,천룡암,부산 남구 진남로 51-0,역사관광지,절,Nam-gu,부산 남구 진남로 51-0,35.1452524,129.075698,85
961,자본시장역사박물관,부산 남구 문현금융로 40-0,문화시설,박물관/기념관,Nam-gu,부산 남구 문현금융로 40-0,35.1432692,129.0649835,85
962,소원사,부산 남구 진남로166번길 59-2,역사관광지,절,Nam-gu,부산 남구 진남로166번길 59-2,35.1412835,129.0797155,85
963,동명대메이커스페이스,부산 남구 용소로46번길 7-0,문화시설,문화생활시설기타,Nam-gu,부산 남구 용소로46번길 7-0,35.133119,129.1006725,85
964,LG메트로 작은쌈지도서관,부산 남구 신선로 566-2,문화시설,문화생활시설기타,Nam-gu,부산 남구 신선로 566-2,35.1246502,129.0998941,85
965,부산은행금융역사관,부산 남구 문현금융로 30-0,문화시설,박물관/기념관,Nam-gu,부산 남구 문현금융로 30-0,35.1432692,129.0649835,85
966,유엔참전기념탑,부산 남구 못골로 15-0,역사관광지,기념비,Nam-gu,부산 남구 못골로 15-0,35.1354328,129.0868789,85
967,오륙도홍보관,부산 남구,문화시설,박물관/기념관,Nam-gu,부산 남구,35.1361,129.0843999,85
968,해안사,부산 남구 진남로232번길 53-10,역사관광지,절,Nam-gu,부산 남구 진남로232번길 53-10,35.1460102,129.0771969,85
969,윌리스장난감박물관,부산 남구 못골로12번길 62-0,문화시설,박물관/기념관,Nam-gu,부산 남구 못골로12번길 62-0,35.1353597,129.085547,85
970,문수암,부산 남구 홍곡로336번길 37-1,역사관광지,절,Nam-gu,부산 남구,35.1361,129.0843999,85
971,성암사,부산 남구 진남로210번길 58-15,역사관광지,절,Nam-gu,부산 남구 진남로210번길 58-15,35.1451031,129.0779734,85
972,메트로랜드,부산 남구 분포로 66-14,휴양관광지,종합위락시설,Nam-gu,부산 남구 분포로 66-14,35.1279355,129.114704,85
973,부산문화회관중극장,부산 남구 유엔평화로76번길 1-0,공연/행사,공연장,Nam-gu,부산 남구 유엔평화로76번길 1-0,35.12521,129.09449,85
974,감만창의문화촌,부산 남구 우암로 84-1,문화시설,문화생활시설기타,Nam-gu,부산 남구 우암로 84-1,35.1144195,129.0816316,85
975,신선대,부산 남구,역사관광지,문화유적지,Nam-gu,부산 남구,35.1361,129.0843999,85
976,유엔평화기념관,부산 남구 홍곡로320번길 106-0,문화시설,박물관/기념관,Nam-gu,부산 남구 홍곡로320번길 106,35.1247168,129.0943343,85
977,분포도서관,부산 남구 분포로 97-0,문화시설,문화생활시설기타,Nam-gu,부산 남구 분포로 97,35.1279355,129.114704,85
978,국립일제강제동원역사관,부산 남구 홍곡로320번길 100-0,문화시설,박물관/기념관,Nam-gu,부산 남구 홍곡로320번길 100-0,35.1247168,129.0943343,85
979,인각사,부산 남구 진남로 234-0,역사관광지,절,Nam-gu,부산 남구 진남로 234-0,35.1452524,129.075698,85
980,부산예술회관,부산 남구 용소로 78-0,문화시설,문화생활시설기타,Nam-gu,부산 남구 용소로 78,35.1316232,129.1014809,85
981,부산문화회관대극장,부산 남구 유엔평화로76번길 1-0,공연/행사,공연장,Nam-gu,부산 남구 유엔평화로76번길 1-0,35.12521,129.09449,85
982,동명불원,부산 남구 동명로 57-0,역사관광지,절,Nam-gu,부산 남구 동명로 57-0,35.1208194,129.0994229,85
983,CGV대연,부산 남구 수영로 305-0,공연/행사,극장,Nam-gu,부산 남구 수영로 305,35.1387324,129.1028871,85
984,남구도서관,부산 남구 수영로267번길 61-0,문화시설,문화생활시설기타,Nam-gu,부산 남구 수영로267번길 61-0,35.1368434,129.0953131,85
985,부산박물관,부산 남구 유엔평화로 63-0,문화시설,박물관/기념관,Nam-gu,부산 남구 유엔평화로 63-0,35.1227814,129.0976272,85
986,캐니언파크부산,부산 남구 전포대로 133-0,휴양관광지,동식물원,Nam-gu,부산 남구 전포대로 133,35.1482885,129.0654374,85
987,가람아트홀,부산 남구 유엔평화로76번길 26-0,공연/행사,공연장,Nam-gu,부산 남구 유엔평화로76번길 26-0,35.12521,129.09449,85
988,해바라기소극장,부산 남구 용소로13번길 30-0,공연/행사,공연장,Nam-gu,부산 남구 용소로13번길 30-0,35.1378504,129.1047247,85
989,백련사,부산 남구 이기대공원로 85-74,역사관광지,절,Nam-gu,부산 남구 이기대공원로 85-74,35.11351,129.12232,85
990,대연수목전시원,부산 남구 신선로447번길 24-0,문화시설,화랑/전시관,Nam-gu,부산 남구 신선로447번길 24-0,35.1250805,129.0993468,85
991,남도심인당,부산 남구 남동천로 22-1,역사관광지,절,Nam-gu,부산 남구 남동천로 22-1,35.1425958,129.0640679,85
992,호명사,부산 남구 지게골로168번길 29-0,역사관광지,절,Nam-gu,부산 남구 지게골로168번길 29-0,35.1313025,129.0758207,85
993,소원사,부산 남구 진남로96번길 56-0,역사관광지,절,Nam-gu,부산 남구 진남로96번길 56,35.1387325,129.0847862,85
994,홍법사,부산 남구 수영로69번가길 40-16,역사관광지,절,Nam-gu,부산 남구 수영로69번가길 40-16,35.1364064,129.0773377,85
995,지장사,부산 남구 솔밭로 23-0,역사관광지,절,Nam-gu,부산 남구 솔밭로 23-0,35.12923,129.07272,85
996,관해암,부산 남구 동제당로 199-0,역사관광지,절,Nam-gu,부산 남구 동제당로 199,35.1313031,129.0769609,85
997,우암사,부산 남구 장고개로 64-15,역사관광지,절,Nam-gu,부산 남구 장고개로 64-15,35.1310573,129.0712585,85
998,청년창조발전소고고씽잡,부산 남구 용소로46번길 7-0,문화시설,문화생활시설기타,Nam-gu,부산 남구 용소로46번길 7-0,35.133119,129.1006725,85
999,윤형빈소극장,부산 남구 수영로 312-0,공연/행사,공연장,Nam-gu,부산 남구 수영로 312,35.1387324,129.1028871,85
1000,하늘바람소극장,부산 남구 용소로13번길 17-0,공연/행사,공연장,Nam-gu,부산 남구 용소로13번길 17-0,35.1378504,129.1047247,85
1001,용화사,부산 남구 동명로169번길 46-34,역사관광지,절,Nam-gu,부산 남구 동명로169번길 46-34,35.1198593,129.1157039,85
1002,아모스아트홀,부산 남구 수영로 204-0,공연/행사,공연장,Nam-gu,부산 남구 수영로 204,35.1387324,129.1028871,85
1003,초콜릿팩토리,부산 남구 수영로 298-0,공연/행사,공연장,Nam-gu,부산 남구 수영로 298,35.1387324,129.1028871,85
1004,나다소극장,부산 남구 용소로40번길 11-0,공연/행사,공연장,Nam-gu,부산 남구 용소로40번길 11-0,35.1339386,129.1000813,85
1005,부산증권박물관,부산 남구 전포대로 133-0,문화시설,박물관/기념관,Nam-gu,부산 남구 전포대로 133,35.1482885,129.0654374,85
1006,용천소극장,부산 남구 용소로13번길 36-1,문화시설,문화생활시설기타,Nam-gu,부산 남구 용소로13번길 36-1,35.1378504,129.1047247,85
1007,분포문화체육센터,부산 남구 분포로 97-0,문화시설,문화생활시설기타,Nam-gu,부산 남구 분포로 97,35.1279355,129.114704,85
1008,대동골문화센터,부산 남구 황령대로319번가길 147-0,문화시설,문화생활시설기타,Nam-gu,부산 남구 황령대로319번가길 147,35.1516957,129.0905417,85
1009,부산문화회관사랑채극장,부산 남구 유엔평화로76번길 1-0,공연/행사,공연장,Nam-gu,부산 남구 유엔평화로76번길 1-0,35.12521,129.09449,85
1010,불국정사,부산 남구 신선로 510-17,역사관광지,절,Nam-gu,부산 남구 신선로 510-17,35.1246502,129.0998941,85
1011,부산광역시립사하도서관,부산 사하구 승학로 247-0,문화시설,문화생활시설기타,Saha-gu,부산 사하구 승학로 247,35.1026953,128.9836802,68
1012,미륵암,부산 사하구 옥천로76번길 51-0,역사관광지,절,Saha-gu,부산 사하구,35.1041,128.9751,68
1013,남운정사,부산 사하구 다대로83번길 65-0,역사관광지,절,Saha-gu,부산 사하구 다대로83번길 65-0,35.0929039,128.9841536,68
1014,감천문화마을작은박물관,부산 사하구 감내2로 191-0,문화시설,박물관/기념관,Saha-gu,부산 사하구 감내2로 191-0,35.096786,129.0080092,68
1015,몰운대그린비치아파트작은도서관,부산 사하구 다대낙조2길 12-0,문화시설,문화생활시설기타,Saha-gu,부산 사하구 다대낙조2길 12-0,35.0509151,128.9682848,68
1016,마하골길벗작은도서관,부산 사하구 승학로161번길 80-0,문화시설,문화생활시설기타,Saha-gu,부산 사하구 승학로161번길 80-0,35.1038938,128.9847654,68
1017,구평예들작은도서관,부산 사하구 을숙도대로745번길 16-0,문화시설,문화생활시설기타,Saha-gu,부산 사하구 을숙도대로745번길 16-0,35.0862891,128.9864178,68
1018,사리암,부산 사하구 사리로55번길 15-0,역사관광지,절,Saha-gu,부산 사하구 사리로55번길 15-0,35.1046946,128.9980271,68
1019,회화나무작은도서관,부산 사하구 사하로141번나길 11-1,문화시설,문화생활시설기타,Saha-gu,부산 사하구 사하로141번나길 11-1,35.0934598,128.9912459,68
1020,사하문화원,부산 사하구 낙동남로1233번길 25-0,문화시설,문화생활시설기타,Saha-gu,부산 사하구 낙동남로1233번길 25-0,35.1115583,128.9479525,68
1021,감내어울터,부산 사하구 감내1로 200-0,문화시설,문화생활시설기타,Saha-gu,부산 사하구 감내1로 200,35.091693,129.0075853,68
1022,수풀작은도서관,부산 사하구 다대로271번길 25-0,문화시설,문화생활시설기타,Saha-gu,부산 사하구,35.1041,128.9751,68
1023,당리작은도서관,부산 사하구 승학로20번길 25-0,문화시설,문화생활시설기타,Saha-gu,부산 사하구 승학로20번길 25-0,35.1067303,128.9709131,68
1024,아미산자생식물원,부산 사하구,휴양관광지,동식물원,Saha-gu,부산 사하구,35.1041,128.9751,68
1025,낙동강문화관,부산 사하구 낙동남로1233번길 1-0,문화시설,문화원,Saha-gu,부산 사하구 낙동남로1233번길 1-0,35.1115583,128.9479525,68
1026,낫개작은도서관,부산 사하구,문화시설,문화생활시설기타,Saha-gu,부산 사하구,35.1041,128.9751,68
1027,한국문화센터부산사하지부,부산 사하구 승학로 23-1,문화시설,문화생활시설기타,Saha-gu,부산 사하구 승학로 23-1,35.1061237,128.9734092,68
1028,보광암,부산 사하구 감천항로190번안길 35-0,역사관광지,절,Saha-gu,부산 사하구 감천항로190번안길 35-0,35.07689,128.9871,68
1029,정원사,부산 사하구 사리로70번길 64-0,역사관광지,절,Saha-gu,부산 사하구 사리로70번길 64,35.1062257,129.0012272,68
1030,몰운대,부산 사하구,역사관광지,문화유적지,Saha-gu,부산 사하구,35.1041,128.9751,68
1031,약수사,부산 사하구 감천로139번가길 41-0,역사관광지,절,Saha-gu,부산 사하구,35.1041,128.9751,68
1032,두송생활문화센터,부산 사하구 다송로 59-0,문화시설,문화생활시설기타,Saha-gu,부산 사하구 다송로 59-0,35.0533501,128.9952791,68
1033,해인정사,부산 사하구 승학로233번길 116-0,역사관광지,절,Saha-gu,부산 사하구 승학로233번길 116,35.1040156,128.9899029,68
1034,홍티아트센터,부산 사하구 다산로106번길 6-0,문화시설,문화생활시설기타,Saha-gu,부산 사하구 다산로106번길 6-0,35.0667476,128.9570048,68
1035,몰운대유원지,부산 사하구,휴양관광지,유원지,Saha-gu,부산 사하구,35.1041,128.9751,68
1036,관음사,부산 사하구 제석로79번길 33-0,역사관광지,절,Saha-gu,부산 사하구 제석로79번길 33-0,35.1078127,128.9760536,68
1037,성불사,부산 사하구 신산북로 51-0,역사관광지,절,Saha-gu,부산 사하구 신산북로 51-0,35.0904823,128.9740487,68
1038,홍티예술촌,부산 사하구 홍티로 76-0,문화시설,문화생활시설기타,Saha-gu,부산 사하구 홍티로 76,35.0564593,128.9571532,68
1039,CGV하단아트몰링,부산 사하구 낙동남로 1413-0,공연/행사,극장,Saha-gu,부산 사하구 낙동남로 1413,35.1064134,128.9625123,68
1040,다대도서관,부산 사하구 다대낙조2길 9-0,문화시설,문화생활시설기타,Saha-gu,부산 사하구 다대낙조2길 9-0,35.0509151,128.9682848,68
1041,부산현대미술관,부산 사하구 낙동남로 1191-0,문화시설,미술관,Saha-gu,부산 사하구 낙동남로 1191,35.1064134,128.9625123,68
1042,연화사,부산 사하구 승학로 97-5,역사관광지,절,Saha-gu,부산 사하구 승학로 97-5,35.1026953,128.9836802,68
1043,정각사,부산 사하구 제석로95번길 99-0,역사관광지,절,Saha-gu,부산 사하구 제석로95번길 99-0,35.1099454,128.9769601,68
1044,무지개작은도서관,부산 사하구 장림시장1길 40-0,문화시설,문화생활시설기타,Saha-gu,부산 사하구,35.1041,128.9751,68
1045,하단꿈길작은도서관,부산 사하구 동매로66번길 6-0,문화시설,문화생활시설기타,Saha-gu,부산 사하구 동매로66번길 6-0,35.1018137,128.9663566,68
1046,문수암,부산 사하구 윤공단로75번길 160-0,역사관광지,절,Saha-gu,부산 사하구,35.1041,128.9751,68
1047,노을나루길작은도서관,부산 사하구 하신번영로 377-0,문화시설,문화생활시설기타,Saha-gu,부산 사하구 하신번영로 377,35.1145905,128.9605341523642,68
1048,감천횃불작은도서관,부산 사하구 옥천로 48-8,문화시설,문화생활시설기타,Saha-gu,부산 사하구 옥천로 48-8,35.0936788,129.0097965,68
1049,약천사,부산 사하구 윤공단로75번길 28-0,역사관광지,절,Saha-gu,부산 사하구,35.1041,128.9751,68
1050,보타사,부산 사하구 대티로77번길 8-0,역사관광지,절,Saha-gu,부산 사하구 대티로77번길 8-0,35.1067069,129.0068507,68
1051,법륜사,부산 사하구 다대로 490-50,역사관광지,절,Saha-gu,부산 사하구 다대로 490-50,35.0993898,128.9771601,68
1052,용수암,부산 사하구 장림번영로28번길 66-0,역사관광지,절,Saha-gu,부산 사하구 장림번영로28번길 66-0,35.0806532,128.9686759,68
1053,보타암,부산 사하구 승학로233번길 80-0,역사관광지,절,Saha-gu,부산 사하구 승학로233번길 80-0,35.1040156,128.9899029,68
1054,영통사,부산 사하구 마하로 84-2,역사관광지,절,Saha-gu,부산 사하구 마하로 84-2,35.102086,128.981698,68
1055,다대포민속예술관,부산 사하구 다대동로 12-0,문화시설,문화생활시설기타,Saha-gu,부산 사하구 다대동로 12-0,35.0574206,128.973153,68
1056,두송작은도서관,부산 사하구 다대로429번길 30-0,문화시설,문화생활시설기타,Saha-gu,부산 사하구 다대로429번길 30-0,35.0635267,128.9809711,68
1057,무학사,부산 사하구,역사관광지,절,Saha-gu,부산 사하구,35.1041,128.9751,68
1058,청안사,부산 사하구 까치고개로6번길 7-0,역사관광지,절,Saha-gu,부산 사하구 까치고개로6번길 7-0,35.1025739,129.002614,68
1059,로타리성인게임장,부산 사하구 하신중앙로 350-0,휴양관광지,놀이시설,Saha-gu,부산 사하구 하신중앙로 350,35.0826656,128.9648227,68
1060,풀잎문화센터사하지부,부산 사하구 다대로 4-0,문화시설,문화생활시설기타,Saha-gu,부산 사하구 다대로 4-0,35.0993898,128.9771601,68
1061,청룡사,부산 사하구 오작로 46-0,역사관광지,절,Saha-gu,부산 사하구 오작로 46-0,35.0979189,128.9959056,68
1062,성불사,부산 사하구 다대로83번안길 39-0,역사관광지,절,Saha-gu,부산 사하구,35.1041,128.9751,68
1063,약수암,부산 사하구 감천로139번가길 41-0,역사관광지,절,Saha-gu,부산 사하구,35.1041,128.9751,68
1064,다대포워터파크,부산 사하구 다대로 698-0,휴양관광지,테마파크,Saha-gu,부산 사하구 다대로 698,35.0993898,128.9771601,68
1065,대한불교조계종미타사,부산 사하구 장평로301번길 29-0,역사관광지,절,Saha-gu,부산 사하구,35.1041,128.9751,68
1066,수자원공사물문화관,부산 사하구 낙동남로1233번길 1-0,문화시설,문화생활시설기타,Saha-gu,부산 사하구 낙동남로1233번길 1-0,35.1115583,128.9479525,68
1067,보국사,부산 사하구 괴정로 193-1,역사관광지,절,Saha-gu,부산 사하구 괴정로 193-1,35.0968144,128.9890529,68
1068,미타사,부산 사하구 다대로 106-0,역사관광지,절,Saha-gu,부산 사하구 다대로 106,35.0993898,128.9771601,68
1069,대웅정사,부산 사하구 승학로161번안길 54-0,역사관광지,절,Saha-gu,부산 사하구 승학로161번안길 54-0,35.1032179,128.9848915,68
1070,까치마을작은도서관,부산 사하구 까치고개로 50-10,문화시설,문화생활시설기타,Saha-gu,부산 사하구 까치고개로 50-10,35.1047692,129.0060324,68
1071,연화사,부산 사하구 오작로76번길 22-13,역사관광지,절,Saha-gu,부산 사하구,35.1041,128.9751,68
1072,을숙도생태공원야외학습장,부산 사하구 낙동남로1233번길 0-0,문화시설,문화생활시설기타,Saha-gu,부산 사하구 낙동남로1233번길 0-0,35.1115583,128.9479525,68
1073,해동사,부산 사하구 다송로72번길 39-0,역사관광지,절,Saha-gu,부산 사하구 다송로72번길 39-0,35.0604137,128.9816194,68
1074,윤공단,부산 사하구 윤공단로 112-0,역사관광지,문화유적지,Saha-gu,부산 사하구 윤공단로 112,35.0612266,128.9735028,68
1075,푸른누리작은도서관,부산 사하구 감천로83번길 26-0,문화시설,문화생활시설기타,Saha-gu,부산 사하구 감천로83번길 26-0,35.0898159,129.0012504,68
1076,용화사,부산 사하구 감천항로190번길 47-7,역사관광지,절,Saha-gu,부산 사하구 감천항로190번길 47-7,35.077727,128.989027,68
1077,꿈꾸는작은도서관,부산 사하구 하신번영로 155-0,문화시설,문화생활시설기타,Saha-gu,부산 사하구 하신번영로 155,35.0890192,128.9602192,68
1078,옥천사,부산 사하구 감천로157번길 7-27,역사관광지,절,Saha-gu,부산 사하구 감천로157번길 7-27,35.0849083,129.0090664,68
1079,청심사,부산 사상구 주례로139번길 14-8,역사관광지,절,Sasang-gu,부산 사상구 주례로139번길 14-8,35.1448233,129.0034669,56
1080,연홍사,부산 사상구,역사관광지,절,Sasang-gu,부산 사상구,35.1521,128.9911,56
1081,백운사,부산 사상구 모라로192번길 151-0,역사관광지,절,Sasang-gu,부산 사상구 모라로192번길 151-0,35.1854833,129.0006628,56
1082,선광사,부산 사상구 백양대로804번길 42-123,역사관광지,절,Sasang-gu,부산 사상구 백양대로804번길 42-123,35.1792335,128.9908453,56
1083,관음사,부산 사상구 백양대로950번나길 80-42,역사관광지,절,Sasang-gu,부산 사상구 백양대로950번나길 80-42,35.1922995,128.9934734,56
1084,무속암,부산 사상구 백양대로804번길 42-79,역사관광지,절,Sasang-gu,부산 사상구 백양대로804번길 42-79,35.1792335,128.9908453,56
1085,위드플스,부산 사상구 가야대로366번길 7-0,휴양관광지,놀이시설,Sasang-gu,부산 사상구 가야대로366번길 7-0,35.1468325,129.0130408,56
1086,새밭행복센터,부산 사상구 대동로159번길 107-0,문화시설,문화생활시설기타,Sasang-gu,부산 사상구 대동로159번길 107-0,35.1410187,128.9807797,56
1087,옥천사,부산 사상구 백양대로768번길 96-10,역사관광지,절,Sasang-gu,부산 사상구 백양대로768번길 96-10,35.1751429,128.9912731,56
1088,보불심인당,부산 사상구 사상로500번길 5-0,역사관광지,절,Sasang-gu,부산 사상구 사상로500번길 5-0,35.1883144,128.9888032,56
1089,523갤러리,부산 사상구 강변대로532번길 94-0,문화시설,문화생활시설기타,Sasang-gu,부산 사상구 강변대로532번길 94,35.13025,128.9709601,56
1090,사상인디스테이션,부산 사상구 사상로 190-0,문화시설,문화생활시설기타,Sasang-gu,부산 사상구 사상로 190,35.1557118,128.9909862,56
